id,catid,latitude,longitude,title,cutDescription,description,street,city,zip,country,state,address,date
3,15,11.634907,92.714638,"ICMR-Regional Medical Research Centre, Port Blair ","Post Bag 13, Dollygunj, Port Blair, Andaman and Nicobar Islands 744103","Post Bag 13, Dollygunj, Port Blair, Andaman and Nicobar Islands 744103","Post Bag 13, Dollygun",Port Blair,744103,India,Andaman and Nicobar Islands,"Post Bag 13, Dollygun,  Port Blair, 744103, Andaman and Nicobar Islands, India",2020-03-22 10:30:34
4,15,13.640438,79.40374,"Sri Venkateswara Institute of Medical Sciences, Tirupati","Sri Venkateswara Institute of Medical Sciences, Alipiri Road, Tirupati-517501 Andhra Pradesh, India","Sri Venkateswara Institute of Medical Sciences, Alipiri Road, Tirupati-517501 Andhra Pradesh, India", Alipiri Road,Tirupati,517507,India,Andhra Pradesh," Alipiri Road,  Tirupati, 517507, Andhra Pradesh, India",2020-03-22 10:47:32
5,15,16.517401,80.671303,"Sidhartha Medical College, Vijayawada","Siddhartha Medical College, Ring Road, Gunadala, Vijayawada-520 008 Andhra Pradesh, India","Siddhartha Medical College, Ring Road, Gunadala, Vijayawada-520 008 Andhra Pradesh, India"," Ring Road, Gunadala",Vijayawada,520008,India,Andhra Pradesh," Ring Road, Gunadala,  Vijayawada, 520008, Andhra Pradesh, India",2020-03-22 12:29:31
6,15,14.6712,77.592903,"Government Medical College, Anantapur","Government Medical College, Anantapur, Rahamat Nagar, Anantapur, Andhra Pradesh 515001","Government Medical College, Anantapur, Rahamat Nagar, Anantapur, Andhra Pradesh 515001",Rahamat Nagar,Anantapur,515001,India,Andhra Pradesh ,"Rahamat Nagar,  Anantapur, 515001, Andhra Pradesh , India",2020-03-22 13:35:00
7,15,14.4332,78.864403,"Rajeev Gandhi Institute of Medical Sciences (RIMS), Kadappa","Rajiv Gandhi Institute of Medical Sciences, Kadapa Puttampalli, Andhra Pradesh 516002","Rajiv Gandhi Institute of Medical Sciences, Kadapa Puttampalli, Andhra Pradesh 516002",Puttampalli,Kadapa,516002,India,Andhra Pradesh ,"Puttampalli,  Kadapa, 516002, Andhra Pradesh , India",2020-03-22 13:44:57
8,15,16.9792,82.237297,"Rangaraya Medical College, Kakinada","Rangaraya Medical College, Pithampuram Road, Kakinada, Andhra Pradesh 533001","Rangaraya Medical College, Pithampuram Road, Kakinada, Andhra Pradesh 533001",Pithampuram Road,Kakinada,533001,India,Andhra Pradesh ,"Pithampuram Road,  Kakinada, 533001, Andhra Pradesh , India",2020-03-22 15:01:58
9,15,16.298201,80.438301,"Guntur Medical College, Guntur","Guntur Medical College, Guntur Kanna Vari Thota, Guntur, Andhra Pradesh 522004","Guntur Medical College, Guntur Kanna Vari Thota, Guntur, Andhra Pradesh 522004",Kanna Vari Thota,Guntur,522004,India,Andhra Pradesh ,"Kanna Vari Thota,  Guntur, 522004, Andhra Pradesh , India",2020-03-22 15:07:20
10,15,17.706499,83.304901,"Andhra Medical College, Vishakhapatnam","Andhra Medical College, Vishakhapatnam, Medical College Road, Opp Collector Office, Maharanipeta,...","Andhra Medical College, Vishakhapatnam, Medical College Road, Opp Collector Office, Maharanipeta, King George Hospital Campus, Andhra Pradesh 530002","Medical College Road, Maharanipeta",Vishakhapatnam,530002,India,Andhra Pradesh ,"Medical College Road, Maharanipeta,  Vishakhapatnam, 530002, Andhra Pradesh , India",2020-03-22 15:18:49
11,15,27.472786,94.982841,"ICMR-Regional Medical Research Centre, NE Region, Dibrugarh","ICMR-Regional Medical Research Centre, Dibrugarh Bokul, Lahowal, Dibrugarh, Assam 786010","ICMR-Regional Medical Research Centre, Dibrugarh Bokul, Lahowal, Dibrugarh, Assam 786010","Bokul, Lahowal",Dibrugarh,786010,India,Assam,"Bokul, Lahowal,  Dibrugarh, 786010, Assam, India",2020-03-22 17:49:08
12,15,26.15424,91.770081,"Gauhati Medical College, Guwahati ","Guwahati Narakasur Hilltop, Bhangagarh, Guwahati, Assam 781032","Guwahati Narakasur Hilltop, Bhangagarh, Guwahati, Assam 781032","Narakasur Hilltop, Bhangagarh",Guwahati,781032,India,Assam ,"Narakasur Hilltop, Bhangagarh,  Guwahati, 781032, Assam , India",2020-03-22 18:24:48
13,15,24.775801,92.794914,"Silchar Medical College, Silchar","Silchar Medical College, Ghungoor, Silchar 788014, Assam, India ","Silchar Medical College, Ghungoor, Silchar 788014, Assam, India ",Ghungoor,Silchar,788014,India,Assam,"Ghungoor,  Silchar, 788014, Assam, India",2020-03-22 18:43:54
14,15,26.742579,94.194832,"Jorhat Medical College, Jorhat","Jorhat Medical College, Kushal Konwar Path, Barbheta, Jorhat, Assam 785001","Jorhat Medical College, Kushal Konwar Path, Barbheta, Jorhat, Assam 785001","Kushal Konwar Path, Barbheta",Jorhat,785001,India,Assam,"Kushal Konwar Path, Barbheta,  Jorhat, 785001, Assam, India",2020-03-22 18:53:54
15,15,26.681482,92.652245,"Tezpur Medical College and Hospital, Tezpur","Tezpur Medical College. Bihaguri, Tezpur 784010, Assam, India","Tezpur Medical College. Bihaguri, Tezpur 784010, Assam, India",Bihaguri,Tezpur,784010,India,Assam ,"Bihaguri,  Tezpur, 784010, Assam , India",2020-03-22 19:04:19
16,15,26.324448,90.984985,"Fakhruddin Ali Ahmed Medical College and Hospital, Barpeta","Fakhruddin Ali Ahmed Medical College and Hospital, Barpeta-Hospital-Jania Rd, Joti Gaon, Assam...","Fakhruddin Ali Ahmed Medical College and Hospital, Barpeta-Hospital-Jania Rd, Joti Gaon, Assam 781301","Barpeta-Hospital-Jania Rd, Joti Gaon",Barpeta,781301,India,Assam,"Barpeta-Hospital-Jania Rd, Joti Gaon,  Barpeta, 781301, Assam, India",2020-03-22 19:19:38
17,15,25.620943,85.160316,"Patna Medical College, Patna","Patna Medical College, Ashok Rajpath, Patna University Campus, Patna, Bihar 80001","Patna Medical College, Ashok Rajpath, Patna University Campus, Patna, Bihar 80001","Ashok Rajpath, Patna University Campus", Patna,80001,India,Bihar,"Ashok Rajpath, Patna University Campus,   Patna, 80001, Bihar, India",2020-03-22 19:40:04
18,15,26.133432,85.899246,"Darbhanga Medical College, Darbhanga","Darbhanga Medical College, DMCH Rd, Allalpatti, Laheriasarai, Darbhanga, Bihar 846003","Darbhanga Medical College, DMCH Rd, Allalpatti, Laheriasarai, Darbhanga, Bihar 846003","DMCH Rd, Allalpatti, Laheriasarai",Darbhanga,846003,India,Bihar,"DMCH Rd, Allalpatti, Laheriasarai,  Darbhanga, 846003, Bihar, India",2020-03-22 19:44:42
19,15,26.167639,85.39209,"S K Medical College, Muzaffarpur","S K Medical College, Shree Krishna medical college, Uma Nagar, Muzaffarpur, Bihar 842004","S K Medical College, Shree Krishna medical college, Uma Nagar, Muzaffarpur, Bihar 842004",Uma Nagar,Muzaffarpur,842004,India,Bihar,"Uma Nagar,  Muzaffarpur, 842004, Bihar, India",2020-03-22 19:50:47
20,15,22.564617,88.400352,"ICMR-National Institute of Cholera & Enteric Diseases (NICED), Kolkata","P-33, C.I.T. Road, Scheme XM, Beleghata, Kolkata 700 010, India","P-33, C.I.T. Road, Scheme XM, Beleghata, Kolkata 700 010, India","P-33, C.I.T. Road, Scheme XM, Beleghata",Kolkata, 700010,India,West Bengal ,"P-33, C.I.T. Road, Scheme XM, Beleghata,  Kolkata,  700010, West Bengal , India",2020-03-22 19:57:00
21,15,25.599751,85.197723,"ICMR-Rajendra  Memorial  Research  Institute  of  Medical  Sciences, Patna","Sadikpur, Patna, Bihar 800007","Sadikpur, Patna, Bihar 800007",Sadikpur,Patna,800007,India,Bihar,"Sadikpur,  Patna, 800007, Bihar, India",2020-03-22 19:58:14
22,15,22.53969,88.342216,"Institute of Post Graduate Medical Education and Research (IPGMER), Kolkata","244, Acharya Jagadish Chandra Bose Rd, Bhowanipore, Kolkata, West Bengal 700020","244, Acharya Jagadish Chandra Bose Rd, Bhowanipore, Kolkata, West Bengal 700020","244, Acharya Jagadish Chandra Bose Rd, Bhowanipore", Kolkata,700020,India, West Bengal ,"244, Acharya Jagadish Chandra Bose Rd, Bhowanipore,   Kolkata, 700020,  West Bengal , India",2020-03-22 20:00:32
23,15,24.088852,88.259293,"Murshidabad Medical College, Berhampore","Murshidabad Medical College and Hospital, Berhampore, West Bengal 742101","Murshidabad Medical College and Hospital, Berhampore, West Bengal 742101"," 73, Station Road, Raninagar, Gora Bazar",Berhampore,742101,India,West Bengal," 73, Station Road, Raninagar, Gora Bazar,  Berhampore, 742101, West Bengal, India",2020-03-22 20:02:46
24,15,30.764416,76.775047,"Post Graduate Institute  of Medical Education  and Research (PGIMER), Chandigarh","Post Graduate Institute of Medical Education & Research, Chandigarh, Madhya Marg, Sector 12,...","Post Graduate Institute of Medical Education & Research, Chandigarh, Madhya Marg, Sector 12, Chandigarh, 160012","Madhya Marg, Sector 12",Chandigarh,160012,India,Chandigarh,"Madhya Marg, Sector 12,  Chandigarh, 160012, Chandigarh, India",2020-03-22 20:03:32
25,15,22.421703,87.323135,"Midnapore Medical College, Midnapore","Vidyasagar Road , Paschim Medinipur, Midnapore, West Bengal, 721 101","Vidyasagar Road , Paschim Medinipur, Midnapore, West Bengal, 721 101",Vidyasagar Road, Midnapore,721101,India,West Bengal,"Vidyasagar Road,   Midnapore, 721101, West Bengal, India",2020-03-22 20:04:48
26,15,26.690771,88.384911,"North Bengal Medical College, Siliguri","North Bengal Medical College, Sushruta Nagar, Siliguri, West Bengal 734012","North Bengal Medical College, Sushruta Nagar, Siliguri, West Bengal 734012",Sushruta Nagar,Siliguri,734012,India,West Bengal ,"Sushruta Nagar,  Siliguri, 734012, West Bengal , India",2020-03-22 20:07:12
27,15,24.992594,88.139076,"Malda Medical College, Malda","Dipak Rd, 3 No. Govt Colony, Uma Roy Sarani, Malda, West Bengal 732101","Dipak Rd, 3 No. Govt Colony, Uma Roy Sarani, Malda, West Bengal 732101", Uma Roy Sarani," Malda, ",732101,India,West Bengal ," Uma Roy Sarani,   Malda, , 732101, West Bengal , India",2020-03-22 20:11:52
28,15,30.708832,76.778297,"Government Medical College and Hospital, Chandigarh","Chandi Path, Sector 32B, 32B, Sector 32, Chandigarh, 160047","Chandi Path, Sector 32B, 32B, Sector 32, Chandigarh, 160047","Chandi Path, Sector 32B, 32B, Sector 32",Chandigarh,160047,India,Chandigarh,"Chandi Path, Sector 32B, 32B, Sector 32,  Chandigarh, 160047, Chandigarh, India",2020-03-22 20:12:32
29,15,22.604391,88.376076,"R. G. Kar Medical College and Hospital, Kolkata","R. G. Kar Medical College and Hospital, 1, Khudiram Bose Sarani, Kolkata","R. G. Kar Medical College and Hospital, 1, Khudiram Bose Sarani, Kolkata","1, Khudiram Bose Sarani",Kolkata,700004,India,West Bengal ,"1, Khudiram Bose Sarani,  Kolkata, 700004, West Bengal , India",2020-03-22 20:13:39
30,15,19.050722,81.948189,"Late Baliram Kashyap Memorial Government Medical College, Jagdalpur","Dimrapal, Jagdalpur, Chhattisgarh 494001","Dimrapal, Jagdalpur, Chhattisgarh 494001",Dimrapal,Jagdalpur,494001,India,Chhattisgarh ,"Dimrapal,  Jagdalpur, 494001, Chhattisgarh , India",2020-03-22 20:23:06
31,15,21.2568,81.579193,"All India Institute of Medical Science (AIIMS), Raipur","All India Institute of Medical Science (AIIMS), Great Eastern Rd, AIIMS Campus, Tatibandh, Raipur,...","All India Institute of Medical Science (AIIMS), Great Eastern Rd, AIIMS Campus, Tatibandh, Raipur, Chhattisgarh 492099","Great Eastern Rd, AIIMS Campus, Tatibandh",Raipur,492099,India,Chhattisgarh ,"Great Eastern Rd, AIIMS Campus, Tatibandh,  Raipur, 492099, Chhattisgarh , India",2020-03-22 20:26:47
32,15,28.567045,77.209892,"All India Institute of Medical Sciences (AIIMS), New Delhi","All India Institute of Medical Sciences (AIIMS), Sri Aurobindo Marg, Ansari Nagar East, New Delhi,...","All India Institute of Medical Sciences (AIIMS), Sri Aurobindo Marg, Ansari Nagar East, New Delhi, Delhi 110029","Sri Aurobindo Marg, Ansari Nagar East",New Delhi,110029,India,Delhi ,"Sri Aurobindo Marg, Ansari Nagar East,  New Delhi, 110029, Delhi , India",2020-03-22 20:32:23
33,15,29.206326,79.518745,"Government Medical College, Haldwani","Rampur Rd, Rampur, Haldwani, Uttarakhand 263129","Rampur Rd, Rampur, Haldwani, Uttarakhand 263129",Rampur Rd,Haldwani,263129,India,Uttarakhand ,"Rampur Rd,  Haldwani, 263129, Uttarakhand , India",2020-03-22 20:32:49
34,15,30.078964,78.283882,"All India Institute of Medical Sciences (AIIMS), Rishikesh","All India Institute of Medical Sciences (AIIMS), Virbhadra Road Shivaji Nagar, near Barrage,...","All India Institute of Medical Sciences (AIIMS), Virbhadra Road Shivaji Nagar, near Barrage, Sturida Colony, Rishikesh, Uttarakhand 249203","Virbhadra Road Shivaji Nagar, Near Barrage, Sturida Colony ",Rishikesh,249203,India, Uttarakhand,"Virbhadra Road Shivaji Nagar, Near Barrage, Sturida Colony ,  Rishikesh, 249203,  Uttarakhand, India",2020-03-22 20:34:36
35,15,26.868742,80.916214,"King George's Medical University, Lucknow","Shah Mina Rd, Chowk, Lucknow, Uttar Pradesh 226003","Shah Mina Rd, Chowk, Lucknow, Uttar Pradesh 226003","Shah Mina Rd, Chowk",Lucknow,226003,India, Uttar Pradesh,"Shah Mina Rd, Chowk,  Lucknow, 226003,  Uttar Pradesh, India",2020-03-22 20:39:16
36,15,27.916861,78.087112,"Jawaharlal Nehru Medical College, Aligarh","Medical Rd, AMU Campus, Aligarh, Uttar Pradesh 202002","Medical Rd, AMU Campus, Aligarh, Uttar Pradesh 202002","Medical Rd, AMU Campus",Aligarh,202002,India,Uttar Pradesh ,"Medical Rd, AMU Campus,  Aligarh, 202002, Uttar Pradesh , India",2020-03-22 20:41:03
37,15,28.633987,77.212578,"Lady Hardinge Medical College, New Delhi","Lady Hardinge Medical College, Connaught Place, New Delhi, Delhi 110001","Lady Hardinge Medical College, Connaught Place, New Delhi, Delhi 110001",Connaught Place,New Delhi,110001,India,Delhi ,"Connaught Place,  New Delhi, 110001, Delhi , India",2020-03-22 20:42:28
38,15,26.960838,78.958397,"Uttar Pradesh University of Medical Sciences, Saifai","Off, Kurawali - Mainpuri - Etawah Rd, Saifai, Uttar Pradesh 206130","Off, Kurawali - Mainpuri - Etawah Rd, Saifai, Uttar Pradesh 206130","Off, Kurawali - Mainpuri - Etawah Road",Saifai, 206130,India,Uttar Pradesh,"Off, Kurawali - Mainpuri - Etawah Road,  Saifai,  206130, Uttar Pradesh, India",2020-03-22 20:43:33
39,15,25.274498,82.999542,"Institute of Medical Sciences, BHU, Varanasi","Aurobindo Colony, Banaras Hindu University Campus, Varanasi, Uttar Pradesh 221005","Aurobindo Colony, Banaras Hindu University Campus, Varanasi, Uttar Pradesh 221005","Aurobindo Colony, Banaras Hindu University Campus",Varanasi, 221005,India,Uttar Pradesh,"Aurobindo Colony, Banaras Hindu University Campus,  Varanasi,  221005, Uttar Pradesh, India",2020-03-22 20:45:31
40,15,23.052471,72.602859,"BJ Medical College, Ahmedabad ","BJ Medical College, Asarwa,, Civil Hospital Campus, Ahmedabad, Gujarat 380016","BJ Medical College, Asarwa,, Civil Hospital Campus, Ahmedabad, Gujarat 380016","Asarwa, Civil Hospital Campus",Ahmedabad,380016,India,Gujarat ,"Asarwa, Civil Hospital Campus,  Ahmedabad, 380016, Gujarat , India",2020-03-22 20:47:41
41,15,22.477367,70.065231,"M.P. Shah Government Medical College, Jamnagar","M.P. Shah Government Medical College, Jamnagar, Pandit Nehru Marg, Indradeep Society, Jamnagar,...","M.P. Shah Government Medical College, Jamnagar, Pandit Nehru Marg, Indradeep Society, Jamnagar, Gujarat 361008","Pandit Nehru Marg, Indradeep Society",Jamnagar,361008,India,Gujarat ,"Pandit Nehru Marg, Indradeep Society,  Jamnagar, 361008, Gujarat , India",2020-03-22 20:55:21
42,15,22.304007,73.191803,"Government Medical College, Vadodara","Vinoba Bhave Rd, Anandpura, Vadodara, Gujarat 390001","Vinoba Bhave Rd, Anandpura, Vadodara, Gujarat 390001","Vinoba Bhave Rd, Anandpura",Vadodara,390001,India,Gujarat ,"Vinoba Bhave Rd, Anandpura,  Vadodara, 390001, Gujarat , India",2020-03-22 20:59:10
43,15,21.178091,72.820244,"Government Medical College, Surat","Opp Income Tax Department Office, Majura Gate, Surat, Gujarat 395001","Opp Income Tax Department Office, Majura Gate, Surat, Gujarat 395001","Opp Income Tax Department Office, Majura Gate",Surat,395001,India,Gujarat ,"Opp Income Tax Department Office, Majura Gate,  Surat, 395001, Gujarat , India",2020-03-22 21:07:07
44,15,20.738577,78.660629,"Mahatma Gandhi Institute of Medical Sciences, Wardha","Mahatma Gandhi Institute of Medical Sciences, Sevagram, Wardha, Maharashtra 442102","Mahatma Gandhi Institute of Medical Sciences, Sevagram, Wardha, Maharashtra 442102",Sevagram,Wardha,442102,India,Maharashtra ,"Sevagram,  Wardha, 442102, Maharashtra , India",2020-03-22 21:11:43
45,15,22.305006,70.798424,"Government Medical College, Rajkot","Pandit Dindayal Upadhyay Medical College, Sadar Civil Hospital Campus, Rajkot, Gujarat 360001","Pandit Dindayal Upadhyay Medical College, Sadar Civil Hospital Campus, Rajkot, Gujarat 360001","Sadar Civil Hospital Campus, ", Rajkot,360001,India,Gujarat ,"Sadar Civil Hospital Campus, ,   Rajkot, 360001, Gujarat , India",2020-03-22 21:19:14
46,15,21.768614,72.137009,"Government Medical College, Bhavnagar","Near State Road Transport Corporation Bus Stand, Bhavnagar, Gujarat 364001","Near State Road Transport Corporation Bus Stand, Bhavnagar, Gujarat 364001",Near State Road Transport Corporation Bus Stand,Bhavnagar,364001,India,Gujarat,"Near State Road Transport Corporation Bus Stand,  Bhavnagar, 364001, Gujarat, India",2020-03-22 21:22:24
47,15,28.883762,76.608688,"Pandit Bhagwat Dayal Sharma Post Graduate  Institute of Medical Sciences, Rohtak","Pandit Bhagwat Dayal Sharma Post Graduate Institute of Medical Sciences, SH 16A, Dev Colony,...","Pandit Bhagwat Dayal Sharma Post Graduate Institute of Medical Sciences, SH 16A, Dev Colony, Rohtak, Haryana 124514","SH 16A, Dev Colony",Rohtak,124514,India,Haryana ,"SH 16A, Dev Colony,  Rohtak, 124514, Haryana , India",2020-03-22 21:26:34
48,15,29.151688,76.808228,"BPS Government Medical College for Women, Sonipat","BPS Government Medical College for Women, Ganaur - Gohana Rd, Khanpur Kalan, Haryana 131305","BPS Government Medical College for Women, Ganaur - Gohana Rd, Khanpur Kalan, Haryana 131305",Ganaur - Gohana Rd,Khanpur Kalan,131305,India,Haryana ,"Ganaur - Gohana Rd,  Khanpur Kalan, 131305, Haryana , India",2020-03-22 21:29:23
49,15,31.106512,77.182251,"Indira Gandhi Medical College, Shimla","Ridge Sanjauli Rd, Lakkar Bazar, Shimla, Himachal Pradesh 171001","Ridge Sanjauli Rd, Lakkar Bazar, Shimla, Himachal Pradesh 171001","Ridge Sanjauli Rd, Lakkar Bazar",Shimla,171001,India,Himachal Pradesh ,"Ridge Sanjauli Rd, Lakkar Bazar,  Shimla, 171001, Himachal Pradesh , India",2020-03-22 21:34:13
50,15,32.099773,76.300392,"Dr. Rajendra Prasad  Government Medical College, Kangra","Tanda Hospital Rd, Kangra, Himachal Pradesh 176001","Tanda Hospital Rd, Kangra, Himachal Pradesh 176001",Tanda Hospital Rd,Kangra,176001,India,Himachal Pradesh ,"Tanda Hospital Rd,  Kangra, 176001, Himachal Pradesh , India",2020-03-22 21:36:50
51,15,34.136143,74.800064,"Sher - i -Kashmir Institute of Medical Sciences, Srinagar","SKIMS Main Rd, Soura, Srinagar, 190011","SKIMS Main Rd, Soura, Srinagar, 190011","SKIMS Main Rd, Soura",Srinagar,190011,India,Jammu and Kashmir,"SKIMS Main Rd, Soura,  Srinagar, 190011, Jammu and Kashmir, India",2020-03-22 21:43:35
52,15,32.73584,74.854576,"Government Medical College, Jammu","Maheshpura, Chowk, Bakshi Nagar, Jammu Cantonment, Jammu and Kashmir 180001","Maheshpura, Chowk, Bakshi Nagar, Jammu Cantonment, Jammu and Kashmir 180001","Maheshpura, Chowk, Bakshi Nagar, Jammu Cantonment",Jammu,180001,India,Jammu and Kashmir,"Maheshpura, Chowk, Bakshi Nagar, Jammu Cantonment,  Jammu, 180001, Jammu and Kashmir, India",2020-03-22 21:52:38
53,15,34.085979,74.79882,"Government Medical College, Srinagar","Jammu and Kashmir, Bemina, Srinagar, 190010","Jammu and Kashmir, Bemina, Srinagar, 190010","Jammu and Kashmir, ","Bemina, ",190010,India,"Jammu and Kashmir, ","Jammu and Kashmir, ,  Bemina, , 190010, Jammu and Kashmir, , India",2020-03-22 21:58:30
54,15,23.391525,85.34845,"Rajendra Institute of Medical Sciences, Ranchi","Rims Cir, Indraprasth Colony, Bariatu, Ranchi, Jharkhand 834009","Rims Cir, Indraprasth Colony, Bariatu, Ranchi, Jharkhand 834009","Rims Cir, Indraprasth Colony, Bariatu","Ranchi, ",834009,India,Jharkhand ,"Rims Cir, Indraprasth Colony, Bariatu,  Ranchi, , 834009, Jharkhand , India",2020-03-22 22:09:32
55,15,22.843639,86.232399,"MGM Medical College, Jamshedpur ","Dimna Rd, Hill View Colony, Mango, Jamshedpur, Jharkhand 831020","Dimna Rd, Hill View Colony, Mango, Jamshedpur, Jharkhand 831020","Dimna Rd, Hill View Colony, Mango",Jamshedpur,831020,India,Jharkhand ,"Dimna Rd, Hill View Colony, Mango,  Jamshedpur, 831020, Jharkhand , India",2020-03-22 22:12:34
56,15,12.959349,77.574692,"Bangalore Medical College & Research Institute, Bangaluru","Bangalore Medical College & Research Institute, Krishna Rajendra Rd, Bengaluru, Karnataka 560002","Bangalore Medical College & Research Institute, Krishna Rajendra Rd, Bengaluru, Karnataka 560002", Krishna Rajendra Rd,Bengaluru,560002,India,Karnataka ," Krishna Rajendra Rd,  Bengaluru, 560002, Karnataka , India",2020-03-22 22:17:15
57,15,12.314514,76.646339,"Mysore Medical College and Research Institute, Mysore","Irwin Road, Next to Railway Staion, Mysuru, Karnataka 570001","Irwin Road, Next to Railway Staion, Mysuru, Karnataka 570001","Irwin Road, Next to Railway Staion",Mysuru,570001,India,Karnataka ,"Irwin Road, Next to Railway Staion,  Mysuru, 570001, Karnataka , India",2020-03-22 22:23:23
58,15,15.154641,76.894096,"Vijayanagar Institute of Medical Science, Bellary","Vijayanagar Institute of Medical Sciences, Contonment, Bellary  583104, Karnataka, India","Vijayanagar Institute of Medical Sciences, Contonment, Bellary  583104, Karnataka, India",Contonment,Bellary,583104, India,Karnataka ,"Contonment,  Bellary, 583104, Karnataka ,  India",2020-03-22 22:26:12
59,15,13.00489,76.102692,"Hassan Institute of Medical Sciences, Hassan","Shri panchamukhi medicals and clinic, opp. govt high school, Hassan, Karnataka 573201","Shri panchamukhi medicals and clinic, opp. govt high school, Hassan, Karnataka 573201","Shri panchamukhi medicals and clinic, opp. govt high school",Hassan,573201,India,Karnataka ,"Shri panchamukhi medicals and clinic, opp. govt high school,  Hassan, 573201, Karnataka , India",2020-03-22 22:31:43
60,15,13.932601,75.566864,"Shimoga Institute of Medical Sciences, Shivamogga","Shimoga Institute of Medical Sciences, N.H.-206, B.H. Road, Shivamogga – 577201 Karnataka","Shimoga Institute of Medical Sciences, N.H.-206, B.H. Road, Shivamogga – 577201 Karnataka"," N.H.-206, B.H. Road",Shivamogga,577201,India, Karnataka ," N.H.-206, B.H. Road,  Shivamogga, 577201,  Karnataka , India",2020-03-22 22:34:17
61,15,17.328522,76.839897,"Gulbarga Institute Of Medical Sciences, Gulbarga","Sedam Rd,Veeresh Nagar Cross, behind MRMC, Gulbarga, Karnataka 585101","Sedam Rd,Veeresh Nagar Cross, behind MRMC, Gulbarga, Karnataka 585101","Sedam Rd,Veeresh Nagar Cross, behind MRMC",Gulbarga,585101,India,Karnataka ,"Sedam Rd,Veeresh Nagar Cross, behind MRMC,  Gulbarga, 585101, Karnataka , India",2020-03-22 22:40:58
62,15,11.27228,75.837196,"Government Medical College, Kozhikode ","17 Medical College Road Medical College Junction, Near Police Station, Kozhikode, Kerala 673008","17 Medical College Road Medical College Junction, Near Police Station, Kozhikode, Kerala 673008","17, Medical College Road Medical College Junction",Kozhikode,673008,India, Kerala ,"17, Medical College Road Medical College Junction,  Kozhikode, 673008,  Kerala , India",2020-03-22 22:43:21
63,15,8.524302,76.924255,"Government Medical College, Trivandrum","Ulloor - Akkulam Rd, near SAT hospital Medical College Junction, Chalakkuzhi, Thiruvananthapuram,...","Ulloor - Akkulam Rd, near SAT hospital Medical College Junction, Chalakkuzhi, Thiruvananthapuram, Kerala 695011","Ulloor - Akkulam Rd, near SAT hospital Medical College Junction, "," Chalakkuzhi, Thiruvananthapuram,", 695011,India, Kerala,"Ulloor - Akkulam Rd, near SAT hospital Medical College Junction, ,   Chalakkuzhi, Thiruvananthapuram,,  695011,  Kerala, India",2020-03-22 22:46:55
64,15,10.614176,76.195602,"Government Medical College, Thrissur","M. G. Kavu, Thrissur, Kerala 680596","M. G. Kavu, Thrissur, Kerala 680596","M. G. Kavu, ","Thrissur, ",680596,India,Kerala ,"M. G. Kavu, ,  Thrissur, , 680596, Kerala , India",2020-03-22 22:50:06
65,15,9.418581,76.343201,"ICMR-National Institute of Virology Field Unit, Allapuzzha","E-Block, 2nd Floor, Govt. TDMC Hospital Complex, Vandanam, Alappuzha 688005 Kerala","E-Block, 2nd Floor, Govt. TDMC Hospital Complex, Vandanam, Alappuzha 688005 Kerala","E-Block, 2nd Floor, Govt. TDMC Hospital Complex, Vandanam",Allapuzzha,688005,India,Kerala ,"E-Block, 2nd Floor, Govt. TDMC Hospital Complex, Vandanam,  Allapuzzha, 688005, Kerala , India",2020-03-22 22:52:58
66,15,23.207355,77.457809," All India Institute of Medical Sciences (AIIMS), Bhopal","All India Institute of Medical Sciences (AIIMS), AIIMS Campus Rd, Saket Nagar, Habib Ganj, Bhopal,...","All India Institute of Medical Sciences (AIIMS), AIIMS Campus Rd, Saket Nagar, Habib Ganj, Bhopal, Madhya Pradesh 462026","AIIMS Campus Rd, Saket Nagar, Habib Ganj",Bhopal,462026,India,Madhya Pradesh ,"AIIMS Campus Rd, Saket Nagar, Habib Ganj,  Bhopal, 462026, Madhya Pradesh , India",2020-03-23 03:54:04
67,15,22.714333,75.880692,"MGM Medical College, Indore","MGM Medical College, Indore, Madhya Pradesh 452001","MGM Medical College, Indore, Madhya Pradesh 452001",A.B.Road, Indore,452001,India, Madhya Pradesh ,"A.B.Road,   Indore, 452001,  Madhya Pradesh , India",2020-03-23 03:56:14
68,15,26.192802,78.162193,"Gajara Raja Medical College, Gwalior","Yadav Colony, Lashkar, Gwalior, Madhya Pradesh 474009","Yadav Colony, Lashkar, Gwalior, Madhya Pradesh 474009","Yadav Colony, Lashkar",Gwalior,474009,India,Madhya Pradesh ,"Yadav Colony, Lashkar,  Gwalior, 474009, Madhya Pradesh , India",2020-03-23 03:58:28
69,15,24.531708,81.297523,"Shyam Shah Medical College, Rewa","Hari Bhushan Nagar, Rewa, Madhya Pradesh 486001","Hari Bhushan Nagar, Rewa, Madhya Pradesh 486001",Hari Bhushan Nagar, Rewa,486001,India,Madhya Pradesh,"Hari Bhushan Nagar,   Rewa, 486001, Madhya Pradesh, India",2020-03-23 04:55:58
70,15,23.147329,79.878586,"ICMR-National Institute for Research in Tribal Health, Jabalpur"," NIRTH Complex, Nagpur Road P.O. - Garha, Jabalpur - 482 003, Madhya Pradesh, India"," NIRTH Complex, Nagpur Road P.O. - Garha, Jabalpur - 482 003, Madhya Pradesh, India",Nagpur Road P.O. - Garha,Jabalpur,482003,India,Madhya Pradesh,"Nagpur Road P.O. - Garha,  Jabalpur, 482003, Madhya Pradesh, India",2020-03-23 04:57:34
71,15,23.147171,79.876678,"Bundelkhand Government College, Sagar","Bundelkhand Government College, Shivaji Ward, Tili Rd, Sagar, Madhya Pradesh 470001","Bundelkhand Government College, Shivaji Ward, Tili Rd, Sagar, Madhya Pradesh 470001","Shivaji Ward, Tili Rd,",Sagar,470001,India,Madhya Pradesh,"Shivaji Ward, Tili Rd,,  Sagar, 470001, Madhya Pradesh, India",2020-03-23 05:01:44
72,15,21.153418,79.091782,"Indira Gandhi Government Medical College & Hospital, Nagpur","Mayo Hospital, Central Ave, Mominpura, Nagpur 440018","Mayo Hospital, Central Ave, Mominpura, Nagpur 440018","Central Ave, Mominpura",Nagpur,440018,India,Maharashtra ,"Central Ave, Mominpura,  Nagpur, 440018, Maharashtra , India",2020-03-23 05:05:57
73,15,16.837025,74.64521,"Government Medical College And Hospital, Miraj","Pandharpur Rd, Maji Sainik Vasahat, Miraj, Maharashtra 416410","Pandharpur Rd, Maji Sainik Vasahat, Miraj, Maharashtra 416410","Pandharpur Rd, Maji Sainik Vasahat","Miraj, ",416410,India,Maharashtra,"Pandharpur Rd, Maji Sainik Vasahat,  Miraj, , 416410, Maharashtra, India",2020-03-23 05:07:48
74,15,19.002028,72.842033,"Seth GS Medical College & KEM Hospital, Mumbai","Acharya Donde Marg, Parel, Mumbai, Maharashtra 400012","Acharya Donde Marg, Parel, Mumbai, Maharashtra 400012","Acharya Donde Marg, Parel",Mumbai, 400012,India,Maharashtra ,"Acharya Donde Marg, Parel,  Mumbai,  400012, Maharashtra , India",2020-03-23 05:11:34
75,15,23.83131,91.261597,"Government Medical College, Agartala","79 Tilla, Agartala, Tripura 799006","79 Tilla, Agartala, Tripura 799006",79 Tilla,Agartala,799006,India,Tripura,"79 Tilla,  Agartala, 799006, Tripura, India",2020-03-23 05:11:38
76,15,21.126404,79.096489,"Government Medical College, Nagpur","Government Medical College, Near Hanuman Nagar, Nagpur- 440009, Maharashtra","Government Medical College, Near Hanuman Nagar, Nagpur- 440009, Maharashtra",Near Hanuman Nagar,Nagpur,440009,India, Maharashtra,"Near Hanuman Nagar,  Nagpur, 440009,  Maharashtra, India",2020-03-23 05:16:43
77,15,19.889299,75.318611,Government Medical College & Hospital Aurangabad,"Government Medical College & Hospital, University Road, Jubilee Park, Aurangabad, Maharashtra 431004","Government Medical College & Hospital, University Road, Jubilee Park, Aurangabad, Maharashtra 431004","University Road, Jubilee Park", Aurangabad,431004,India,Maharashtra ,"University Road, Jubilee Park,   Aurangabad, 431004, Maharashtra , India",2020-03-23 05:19:15
78,15,20.863955,74.760155,"Shree Bhausaheb Hire Government Medical College, Dhule","Shree Bhausaheb Hire Government Medical College, Dhule,Chakkarbardi, Malegaon Road, Dhule,...","Shree Bhausaheb Hire Government Medical College, Dhule,Chakkarbardi, Malegaon Road, Dhule, Maharashtra 424001","Chakkarbardi, Malegaon Road",Dhule, 424001,India,Maharashtra,"Chakkarbardi, Malegaon Road,  Dhule,  424001, Maharashtra, India",2020-03-23 05:20:50
80,15,20.702597,77.001945,"Government Medical College, Akola","Government Medical College, Ashok Vatika, District Collector Office Road, Near, Bhandaraj BK,...","Government Medical College, Ashok Vatika, District Collector Office Road, Near, Bhandaraj BK, Akola, Maharashtra 444001, India","Ashok Vatika, District Collector Office Road",Akola, 444001,India, Maharashtra,"Ashok Vatika, District Collector Office Road,  Akola,  444001,  Maharashtra, India",2020-03-23 05:25:36
81,15,24.815901,93.920616,"Regional Institute of Medical Sciences, Imphal","Lamphel Road, Lamphelpat, Imphal, Manipur 795004","Lamphel Road, Lamphelpat, Imphal, Manipur 795004","Lamphel Road, Lamphelpat,", Imphal,795004,India, Manipur ,"Lamphel Road, Lamphelpat,,   Imphal, 795004,  Manipur , India",2020-03-23 05:27:58
82,15,24.809977,93.96096,"Jawaharlal Nehru Institute of Medical Sciences, Imphal","Porompat, Imphal, Manipur 795004","Porompat, Imphal, Manipur 795004",Porompat,Imphal,795004,India, Manipur,"Porompat,  Imphal, 795004,  Manipur, India",2020-03-23 05:30:01
83,15,25.591112,91.937798,"North Eastern Indira Gandhi Regional Institute of Health and Medical Sciences (NEIGRIHMS), Shillong","NEIGRIHMS,Mawdiangdiang Shillong-793018, Meghalaya, India","NEIGRIHMS,Mawdiangdiang Shillong-793018, Meghalaya, India",Mawdiangdiang,Shillong,793018,India,Meghalaya ,"Mawdiangdiang,  Shillong, 793018, Meghalaya , India",2020-03-23 05:32:10
84,15,20.31682,85.819847,"ICMR-Regional Medical Research Centre (RMRC), Bhubaneswar","Chandrasekharpur, Bhubaneswar - 751 023,  Odisha","Chandrasekharpur, Bhubaneswar - 751 023,  Odisha",Chandrasekharpur, Bhubaneswar, 751023,India,Odisha,"Chandrasekharpur,   Bhubaneswar,  751023, Odisha, India",2020-03-23 05:33:27
85,15,20.472128,85.889336,"SCB Medical College Hospital, Cuttack","SCB Medical College Hospital,  Manglabag, Cuttack-753007","SCB Medical College Hospital,  Manglabag, Cuttack-753007",Manglabag,Cuttack,753007,India,Odisha ,"Manglabag,  Cuttack, 753007, Odisha , India",2020-03-23 05:35:26
86,15,11.950302,79.797508,"Jawaharlal Institute of Postgraduate Medical Education and Research (JIPMER), Puducherry","JIPMER Campus Rd, Gorimedu, Dhanvantari Nagar, Puducherry, 605006","JIPMER Campus Rd, Gorimedu, Dhanvantari Nagar, Puducherry, 605006","JIPMER Campus Rd, Gorimedu, Dhanvantari Nagar",Puducherry, 605006,India,Puducherry,"JIPMER Campus Rd, Gorimedu, Dhanvantari Nagar,  Puducherry,  605006, Puducherry, India",2020-03-23 05:36:59
87,15,9.928428,78.134979,"Madurai Medical College, Madurai","<span class=""section-info-text""><span class=""widget-pane-link"">Medical College, Medical College Rd, Alwarpuram, Madurai, Tamil Nadu 625020</span></span>","<span class=""section-info-text""><span class=""widget-pane-link"">Medical College, Medical College Rd, Alwarpuram, Madurai, Tamil Nadu 625020</span></span>","Medical College Rd, Alwarpuram",Madurai,625020,India,Tamil Nadu,"Medical College Rd, Alwarpuram,  Madurai, 625020, Tamil Nadu, India",2020-03-23 05:37:56
88,15,11.940414,79.79409,"Indira Gandhi Medical College & Research Institute, Puducherry","Kathirkamam, Puducherry, 605009","Kathirkamam, Puducherry, 605009",Kathirkamam, Puducherry, 605009,India, Puducherry,"Kathirkamam,   Puducherry,  605009,  Puducherry, India",2020-03-23 05:38:27
89,15,31.653852,74.883034,"Government Medical College, Amritsar","Medical Enclave, Amritsar, Punjab 143001","Medical Enclave, Amritsar, Punjab 143001",Medical Enclave,Amritsar,143001,India, Punjab ,"Medical Enclave,  Amritsar, 143001,  Punjab , India",2020-03-23 05:39:46
90,15,30.328062,76.382942,"Government Medical College, Patiala","Sangrur Rd, New Lal Bagh Colony, Patiala, Punjab 147001","Sangrur Rd, New Lal Bagh Colony, Patiala, Punjab 147001","Sangrur Rd, New Lal Bagh Colony,", Patiala,147001,India, Punjab,"Sangrur Rd, New Lal Bagh Colony,,   Patiala, 147001,  Punjab, India",2020-03-23 05:41:56
91,15,10.006198,77.551498,"Government Theni  Medical College, Theni","Govt. Theni Medical College, k. villakku, Tamil Nadu 625531","Govt. Theni Medical College, k. villakku, Tamil Nadu 625531",Govt. Theni Medical College,Theni,625531,India,Tamil Nadu,"Govt. Theni Medical College,  Theni, 625531, Tamil Nadu, India",2020-03-23 05:42:14
92,15,11.671602,78.065346,"Kumar Mangalam Government Medical College, Salem","Government Mohan Kumaramangalam Medical College, Steel Plant Road Sarkar Kollappatty, Salem, Tamil...","Government Mohan Kumaramangalam Medical College, Steel Plant Road Sarkar Kollappatty, Salem, Tamil Nadu 636030",Steel Plant Road Sarkar Kollappatty,Salem,636030,India,Tamil Nadu,"Steel Plant Road Sarkar Kollappatty,  Salem, 636030, Tamil Nadu, India",2020-03-23 05:45:08
93,15,8.711757,77.748627," Tirunelveli Medical College, Tirunelveli","Tirunelveli Medical College, 3, High Ground Rd, Palayamkottai, Tirunelveli, Tamil Nadu 627011","Tirunelveli Medical College, 3, High Ground Rd, Palayamkottai, Tirunelveli, Tamil Nadu 627011"," 3, High Ground Rd, Palayamkottai",Tirunelveli,627011,India,Tamil Nadu," 3, High Ground Rd, Palayamkottai,  Tirunelveli, 627011, Tamil Nadu, India",2020-03-23 05:49:35
94,15,11.028704,77.021706,"Coimbatore Medical College, Coimbatore","Coimbatore Medical College, 1 A, SF No 498, Avinashi Rd, Peelamedu, Civil Aerodrome Post,...","Coimbatore Medical College, 1 A, SF No 498, Avinashi Rd, Peelamedu, Civil Aerodrome Post, Coimbatore, Tamil Nadu 641018","1 A, SF No 498, Avinashi Rd",Peelamedu,641018,India,Tamil Nadu,"1 A, SF No 498, Avinashi Rd,  Peelamedu, 641018, Tamil Nadu, India",2020-03-23 05:51:47
95,15,13.012446,80.215416,"King Institute of Preventive Medicine and Research, Chennai","King Institute of Preventive Medicine and Research, Guindy, Chennai, Tamil Nadu 600032","King Institute of Preventive Medicine and Research, Guindy, Chennai, Tamil Nadu 600032",Guindy,Chennai,600032,India,Tamil Nadu,"Guindy,  Chennai, 600032, Tamil Nadu, India",2020-03-23 05:55:14
96,15,13.079977,80.270096,"Madras Medical College, Chennai","Madras Medical College, <span class=""section-info-text""><span class=""widget-pane-link"">Near Park Town Station, Park Town, Chennai, Tamil Nadu 600003</span></span>","Madras Medical College, <span class=""section-info-text""><span class=""widget-pane-link"">Near Park Town Station, Park Town, Chennai, Tamil Nadu 600003</span></span>","Near Park Town Station, Park Town",Chennai,600003,India,Tamil Nadu,"Near Park Town Station, Park Town,  Chennai, 600003, Tamil Nadu, India",2020-03-23 05:57:52
98,15,26.905384,75.816635,"Sawai Man Singh (SMS) Medical College, Jaipur","SMS Medical College, Jawahar Lal Nehru Marg, Gangawal Park, Adarsh Nagar, Jaipur, Rajasthan 302004","SMS Medical College, Jawahar Lal Nehru Marg, Gangawal Park, Adarsh Nagar, Jaipur, Rajasthan 302004","Jawahar Lal Nehru Marg, Gangawal Park, Adarsh Nagar",Jaipur,302004,India,Rajasthan ,"Jawahar Lal Nehru Marg, Gangawal Park, Adarsh Nagar,  Jaipur, 302004, Rajasthan , India",2020-03-23 07:01:33
99,15,26.269421,73.005219,"Dr. Sampurnanand Medical College, Jodhpur","Dr. S.N. Medical College, Residency Road, Near Sriram Excellency Hotel, Sector-D, Shastri Nagar,...","Dr. S.N. Medical College, Residency Road, Near Sriram Excellency Hotel, Sector-D, Shastri Nagar, opposite Petrol Pump, Jodhpur, Rajasthan 342003","Residency Road, Near Sriram Excellency Hotel, Sector-D, Shastri Nagar",Jodhpur,342003,India,Rajasthan ,"Residency Road, Near Sriram Excellency Hotel, Sector-D, Shastri Nagar,  Jodhpur, 342003, Rajasthan , India",2020-03-23 07:03:15
100,15,11.994311,79.513016,"Government Villupuram Medical College, Villupuram","Government Villupuram Medical College, <span class=""section-info-text""><span class=""widget-pane-link"">Mundiyampakkam, Villupuram, Tamil Nadu 605601</span></span>","Government Villupuram Medical College, <span class=""section-info-text""><span class=""widget-pane-link"">Mundiyampakkam, Villupuram, Tamil Nadu 605601</span></span>",GST Road,Villupuram,605601,India,Tamil Nadu,"GST Road,  Villupuram, 605601, Tamil Nadu, India",2020-03-23 07:04:46
101,15,24.588215,73.692795,"RNT Medical College, Udaipur","RNT Medical College, Court Chowk, City's Prime Health Care Area, Udaipur, Rajasthan 313001","RNT Medical College, Court Chowk, City's Prime Health Care Area, Udaipur, Rajasthan 313001","Court Chowk, City's Prime Health Care Area",Udaipur, 313001,India,Rajasthan,"Court Chowk, City's Prime Health Care Area,  Udaipur,  313001, Rajasthan, India",2020-03-23 07:04:50
102,15,10.776112,79.602654,"Government Medical College, Thiruvarur","Government Medical College, <span class=""section-info-text""><span class=""widget-pane-link"">Collector office Master Plan Complex, Collector Office Road,</span></span>...","Government Medical College, <span class=""section-info-text""><span class=""widget-pane-link"">Collector office Master Plan Complex, Collector Office Road, Thiruvarur, Tamil Nadu 610004</span></span>", Collector Office Road,Thiruvarur,610004,India,Tamil Nadu," Collector Office Road,  Thiruvarur, 610004, Tamil Nadu, India",2020-03-23 07:06:52
103,15,28.00639,73.328323,"S.P. Medical College, Bikaner","S.P. Medical College, PBM Hospital, Bikaner, Rajasthan 334001","S.P. Medical College, PBM Hospital, Bikaner, Rajasthan 334001",PBM Hospital,Bikaner, 334001,India,Rajasthan,"PBM Hospital,  Bikaner,  334001, Rajasthan, India",2020-03-23 07:08:15
104,15,18.001333,79.588928,"Kakatiya Medical College, Warangal","Kakatiya Medical College, South North V P Road, Nizampura, Rangampet Street, Warangal 506007,...","Kakatiya Medical College, South North V P Road, Nizampura, Rangampet Street, Warangal 506007, Telangana, India","South North V P Road, Nizampura, Rangampet Street",Warangal,506007,India,Telangana,"South North V P Road, Nizampura, Rangampet Street,  Warangal, 506007, Telangana, India",2020-03-23 07:09:50
105,15,24.58556,76.158852,"Jhalawar Medical College, Jhalawar","Jhalawar Medical College, N.H.-12, Kota Rd, Jhalawar, Rajasthan 326001","Jhalawar Medical College, N.H.-12, Kota Rd, Jhalawar, Rajasthan 326001","N.H.-12, Kota Rd, Jhalawar",Jhalawar,326001,India,Rajasthan ,"N.H.-12, Kota Rd, Jhalawar,  Jhalawar, 326001, Rajasthan , India",2020-03-23 07:10:05
106,15,17.382252,78.480659,"Osmania Medical College, Hyderabad","Osmania Medical College, 5-1-876, Turrebaz Khan Rd, Troop Bazaar, Koti, Hyderabad, Telangana 500095","Osmania Medical College, 5-1-876, Turrebaz Khan Rd, Troop Bazaar, Koti, Hyderabad, Telangana 500095","5-1-876, Turrebaz Khan Road",Hyderabad,500095,India,Telangana,"5-1-876, Turrebaz Khan Road,  Hyderabad, 500095, Telangana, India",2020-03-23 07:11:45
107,15,26.240667,73.004997,"All India Institute of Medical Sciences (AIIMS), Jodhpur","All India Institute of Medical Sciences (AIIMS), Basni Industrial Area, MIA 2nd Phase, Basni,...","All India Institute of Medical Sciences (AIIMS), Basni Industrial Area, MIA 2nd Phase, Basni, Jodhpur, Rajasthan 342005","Basni Industrial Area, MIA 2nd Phase, Basni",Jodhpur,342005,India,Rajasthan,"Basni Industrial Area, MIA 2nd Phase, Basni,  Jodhpur, 342005, Rajasthan, India",2020-03-23 07:12:01
108,15,17.424665,78.502197,"Gandhi Medical College, Secunderabad","Gandhi Medical College, Musheerabad, Padmarao Nagar, Secunderabad, Telangana 500003","Gandhi Medical College, Musheerabad, Padmarao Nagar, Secunderabad, Telangana 500003"," Musheerabad, Padmarao Nagar",Secunderabad,500003,India,Telangana," Musheerabad, Padmarao Nagar,  Secunderabad, 500003, Telangana, India",2020-03-23 07:13:44
109,16,28.738857,77.134216,"Dr Lal PathLabs, National Reference laboratory, New Delhi","National Reference laboratory, B7 Rd, Block E, Sector 18, Rohini, New Delhi, Delhi 110085","National Reference laboratory, B7 Rd, Block E, Sector 18, Rohini, New Delhi, Delhi 110085","B7 Rd, Block E, Sector 18","Rohini, New Delhi",110085,India,Delhi,"B7 Rd, Block E, Sector 18,  Rohini, New Delhi, 110085, Delhi, India",2020-03-23 07:31:13
110,16,19.067995,73.003891,"Thyrocare Technologies Limited,  Navi Mumbai","Thyrocare Technologies Limited, D-37/1 MIDC Turbhe Opp Sandoz, MIDC Industrial Area, Sanpada, Navi...","Thyrocare Technologies Limited, D-37/1 MIDC Turbhe Opp Sandoz, MIDC Industrial Area, Sanpada, Navi Mumbai, Maharashtra 400703","D-37/1 MIDC, Sanpada,Turbhe",Navi Mumbai,400703,India,Maharashtra,"D-37/1 MIDC, Sanpada,Turbhe,  Navi Mumbai, 400703, Maharashtra, India",2020-03-23 07:37:15
111,16,19.139215,73.002266,"Sir H.N. Reliance Foundation Hospital and Research Center, Mumbai","Reliance Life Sciences Pvt Ltd, MIDC, R-282, Thane - Belapur Rd, T.T.C. Industrial Area, Rabale,...","Reliance Life Sciences Pvt Ltd, MIDC, R-282, Thane - Belapur Rd, T.T.C. Industrial Area, Rabale, Navi Mumbai, Maharashtra 400701","MIDC, R-282, Thane - Belapur Rd, T.T.C. Industrial Area, Rabale",Navi Mumbai,400701 ,India,Maharashtra,"MIDC, R-282, Thane - Belapur Rd, T.T.C. Industrial Area, Rabale,  Navi Mumbai, 400701 , Maharashtra, India",2020-03-23 07:42:21
112,16,19.137468,72.823578,"Suburban Diagnostics(INDIA) Pvt. Ltd, Mumbai","2nd Floor Aston, Shastri Nagar, Andheri (W), Mumbai, Maharashtra, India 400053","2nd Floor Aston, Shastri Nagar, Andheri (W), Mumbai, Maharashtra, India 400053","2nd Floor Aston, Shastri Nagar"," Andheri (W), Mumbai",400053,India,Maharashtra,"2nd Floor Aston, Shastri Nagar,   Andheri (W), Mumbai, 400053, Maharashtra, India",2020-03-23 07:50:03
113,16,19.082016,72.88353,"Metropolis Healthcare Ltd, Mumbai","Metropolis Healthcare Ltd, 4th Floor, Commerical Building 1-A, Kohinoor City Mall, Off LBS Marg,...","Metropolis Healthcare Ltd, 4th Floor, Commerical Building 1-A, Kohinoor City Mall, Off LBS Marg, Vidyavihar (West), Mumbai, Maharashtra 400070","4th Floor, Commerical Building 1-A, Kohinoor City Mall, Vidyavihar (West)",Mumbai,400070,India,Maharashtra,"4th Floor, Commerical Building 1-A, Kohinoor City Mall, Vidyavihar (West),  Mumbai, 400070, Maharashtra, India",2020-03-23 07:53:32
114,16,22.113466,71.736961,"Unipath Speciality Laboratory Limited, Ahmedabad","Unipath Speciality Laboratory Limited, 102, 1st Floor, Sanoma Plaza, Sheth Mangald Road, Opp...","Unipath Speciality Laboratory Limited, 102, 1st Floor, Sanoma Plaza, Sheth Mangald Road, Opp. Parimal Garden, Ellisbridge, Ahmedabad, Gujarat 380006","102, 1st Floor, Sanoma Plaza, Sheth Mangald Road, Ellisbridge",Ahmedabad,380006,India,Gujarat,"102, 1st Floor, Sanoma Plaza, Sheth Mangald Road, Ellisbridge,  Ahmedabad, 380006, Gujarat, India",2020-03-23 07:56:43
115,16,12.981785,77.602783,"Neuberg Anand Reference Laboratory, Bengaluru","Neuberg Anand Reference Laboratory, Anand Tower, #54, bowring Hospital Road, Bengaluru, Karnataka,...","Neuberg Anand Reference Laboratory, Anand Tower, #54, bowring Hospital Road, Bengaluru, Karnataka, India 560001","Anand Tower, #54, Bowring Hospital Road",Bengaluru,560001,India,Karnataka,"Anand Tower, #54, Bowring Hospital Road,  Bengaluru, 560001, Karnataka, India",2020-03-23 07:59:29
116,16,19.171404,72.843422,"SRL Diagnostics, Goregaon West, Mumbai","SRL Diagnostics, Plot No 1, Prime Square building, Gaiwadi Industrial, estate, Next to Patel...","SRL Diagnostics, Plot No 1, Prime Square building, Gaiwadi Industrial, estate, Next to Patel Petrol Pump, Opposite Mahesh Nagar, S.V. Road, Goregaon West, Mumbai, Maharashtra 400062","Prime Square building, Gaiwadi Industrial, Estate, S.V. Road, Goregaon West",Mumbai,400062,India,Maharashtra,"Prime Square building, Gaiwadi Industrial, Estate, S.V. Road, Goregaon West,  Mumbai, 400062, Maharashtra, India",2020-03-23 08:04:10
117,16,12.924607,79.132622," Christian Medical College, Vellore","Department of Clinical Virology, Christian Medical College, 9th Floor, ASHA Building, IDA Scudder...","Department of Clinical Virology, Christian Medical College, 9th Floor, ASHA Building, IDA Scudder Road, Christian Medical College, Vellore, Tamil Nadu, India Pin 632004","9th Floor, ASHA Building, IDA Scudder Road",Vellore,632004,India,Tamil Nadu,"9th Floor, ASHA Building, IDA Scudder Road,  Vellore, 632004, Tamil Nadu, India",2020-03-23 08:07:39
118,16,13.046235,80.150368,"Apollo Hospitals Enterprise Limited, Chennai","Department of Laboratory Services, Apollo Hospitals Enterprise Limited, 21 Greams Lane, Off Greams...","Department of Laboratory Services, Apollo Hospitals Enterprise Limited, 21 Greams Lane, Off Greams Road, Chennai Tamil Nadu Pin 600006"," 21 Greams Lane, Off Greams Road",Chennai,600006,India,Tamil Nadu," 21 Greams Lane, Off Greams Road,  Chennai, 600006, Tamil Nadu, India",2020-03-23 08:10:50
119,16,28.426413,77.019768,"Strand Life Sciences, Gurugram","Strand Life Sciences, A-17, Info Technology Park, Sector 34, Gurugram, Haryana 122001","Strand Life Sciences, A-17, Info Technology Park, Sector 34, Gurugram, Haryana 122001"," A-17, Info Technology Park, Sector 34",Gurugram,122001,India,Haryana," A-17, Info Technology Park, Sector 34,  Gurugram, 122001, Haryana, India",2020-03-23 08:22:15
122,15,28.625759,77.198448," Ram Manohar Lohia Hospital, New Delhi","Ram Manohar Lohia Hospital, Type III, President's Estate, New Delhi, Delhi 110001","Ram Manohar Lohia Hospital, Type III, President's Estate, New Delhi, Delhi 110001"," Type III, President's Estate",New Delhi,110001,India,Delhi," Type III, President's Estate,  New Delhi, 110001, Delhi, India",2020-03-23 09:07:28
123,15,28.506643,77.163948,"Institute of Liver and Biliary Sciences, New Delhi","D1 ILBS Road, Vasant Kunj, New Delhi, Delhi 110070","D1 ILBS Road, Vasant Kunj, New Delhi, Delhi 110070"," D1 ILBS Road, Vasant Kunj",New Delhi,110070,India,Delhi," D1 ILBS Road, Vasant Kunj,  New Delhi, 110070, Delhi, India",2020-03-23 09:10:07
124,15,28.679474,77.22139,"National Centre for Disease Control, New Delhi","22, Sham Nath Marg, Civil Lines, New Delhi, Delhi 110054","22, Sham Nath Marg, Civil Lines, New Delhi, Delhi 110054"," 22, Sham Nath Marg, Civil Lines",New Delhi,110054,India,Delhi," 22, Sham Nath Marg, Civil Lines,  New Delhi, 110054, Delhi, India",2020-03-23 09:14:23
125,15,28.583654,77.155678,"Army Hospital Research & Referral, New Delhi","Army Hospital Research & Referral, Military Hospital Road, Near Subroto Park, Dhaula Kuan, New...","Army Hospital Research & Referral, Military Hospital Road, Near Subroto Park, Dhaula Kuan, New Delhi, Delhi 110010",Subroto Park,New Delhi,110010,India,Delhi,"Subroto Park,  New Delhi, 110010, Delhi, India",2020-03-23 09:16:40
126,15,32.93079,75.133156,"Command Hospital, Udhampur","Command Hospital, Raghunathpura, Udhampur, Jammu and Kashmir 182101","Command Hospital, Raghunathpura, Udhampur, Jammu and Kashmir 182101",Raghunathpura,Udhampur,182101,India,Jammu and Kashmir,"Raghunathpura,  Udhampur, 182101, Jammu and Kashmir, India",2020-03-23 09:26:52
127,16,28.489103,77.059502,"SRL Limited, Gurugram","SRL Limited, GP 26 Sector 18, Gurugram, Haryana, India  122015","SRL Limited, GP 26 Sector 18, Gurugram, Haryana, India  122015",GP 26 Sector 18,Gurugram,122015,India,Haryana,"GP 26 Sector 18,  Gurugram, 122015, Haryana, India",2020-03-23 09:30:32
128,15,12.964655,77.625938,"Command Hospital (Air Force), Bengaluru","Command Hospital (Air Force) , Cambridge Rd, Cambridge Layout, Jogupalya, Bengaluru, Karnataka...","Command Hospital (Air Force) , Cambridge Rd, Cambridge Layout, Jogupalya, Bengaluru, Karnataka 560007","Cambridge Rd, Cambridge Layout",Bengaluru,560007,India,Karnataka,"Cambridge Rd, Cambridge Layout,  Bengaluru, 560007, Karnataka, India",2020-03-23 09:30:37
129,15,12.937333,77.588646,"ICMR-National Institute of Virology, Field Unit, Bangalore","National Institute of Virology, Field Unit, Rajiv Gandhi Institute of Chest Disease Premises, Near...","National Institute of Virology, Field Unit, Rajiv Gandhi Institute of Chest Disease Premises, Near NIMHANS, Someshwaranagar, 1stMain, Dharmaram College Post, Bangalore 560029","Rajiv Gandhi Institute of Chest Disease Premises, Near NIMHANS, Someshwaranagar, 1st Main",Bangalore,560029,India,Karnataka,"Rajiv Gandhi Institute of Chest Disease Premises, Near NIMHANS, Someshwaranagar, 1st Main,  Bangalore, 560029, Karnataka, India",2020-03-23 09:32:54
130,15,18.547873,73.769043,"ICMR-National Institute of Virology, Pune","<span class=""section-info-text""><span class=""widget-pane-link"">National Institute of Virology, Pune, 130/1, Pashan - Sus Rd, Pashan Gaon, Pashan, Pune,</span></span>...","<span class=""section-info-text""><span class=""widget-pane-link"">National Institute of Virology, Pune, 130/1, Pashan - Sus Rd, Pashan Gaon, Pashan, Pune, Maharashtra 411021</span></span>","130/1, Pashan - Sus Rd",Pune,411021,India,Maharashtra,"130/1, Pashan - Sus Rd,  Pune, 411021, Maharashtra, India",2020-03-23 09:37:18
132,15,8.49236,76.964684,"Rajiv Gandhi Center for Biotechnology, Thiruvananthapuram","Rajiv Gandhi Center for Biotechnology, Melarannoor Road Behind Central Jail Poojapura, Thycaud,...","Rajiv Gandhi Center for Biotechnology, Melarannoor Road Behind Central Jail Poojapura, Thycaud, Thiruvananthapuram, Kerala 695014","Melarannoor Road, Behind Central Jail Poojapura",Thiruvananthapuram,695014,India,Kerala,"Melarannoor Road, Behind Central Jail Poojapura,  Thiruvananthapuram, 695014, Kerala, India",2020-03-23 10:17:03
133,15,8.521672,76.924194,"Sree Chitra Tirunal Institute for Medical Sciences & Technology, Thiruvananthapuram","Sree Chitra Tirunal Institute for Medical Sciences & Technology, Jai Nagar W Rd, Chalakkuzhi,...","Sree Chitra Tirunal Institute for Medical Sciences & Technology, Jai Nagar W Rd, Chalakkuzhi, Thiruvananthapuram, Kerala 695011","Jai Nagar W Rd, Chalakkuzhi",Thiruvananthapuram,695011,India,Kerela,"Jai Nagar W Rd, Chalakkuzhi,  Thiruvananthapuram, 695011, Kerela, India",2020-03-23 10:20:21
134,15,18.984041,72.827652,"Kasturba Hospital for Infectious Diseases, Mumbai","Kasturba Hospital for Infectious Diseases, Mumbai, Sane Guruji Marg, Arya Nagar, Chinchpokli,...","Kasturba Hospital for Infectious Diseases, Mumbai, Sane Guruji Marg, Arya Nagar, Chinchpokli, Mumbai, Maharashtra 400034"," Sane Guruji Marg, Arya Nagar, Chinchpokli",Mumbai,400034,India,Maharashtra," Sane Guruji Marg, Arya Nagar, Chinchpokli,  Mumbai, 400034, Maharashtra, India",2020-03-23 10:27:21
135,15,18.504044,73.887901,"Armed Forces Medical College, Pune","Armed Forces Medical College, Southern Command, Solapur Road, Wanowrie, Near Race Course, Pune,...","Armed Forces Medical College, Southern Command, Solapur Road, Wanowrie, Near Race Course, Pune, Maharashtra 411040"," Southern Command, Solapur Road, Wanowrie, near Race Course",Pune,411040,India,Maharashtra," Southern Command, Solapur Road, Wanowrie, near Race Course,  Pune, 411040, Maharashtra, India",2020-03-23 10:32:47
136,15,18.526237,73.868935,"BJ Medical College, Pune","BJ Medical College, Jai Prakash Narayan Road, Railway Station Rd, near Pune, Maharashtra 411001","BJ Medical College, Jai Prakash Narayan Road, Railway Station Rd, near Pune, Maharashtra 411001","Jai Prakash Narayan Road, Railway Station Rd",Pune,411001,India,Maharashtra,"Jai Prakash Narayan Road, Railway Station Rd,  Pune, 411001, Maharashtra, India",2020-03-23 10:35:51
137,15,23.25993,77.388763,"Gandhi Medical College, Bhopal","Gandhi Medical College, Sultania Rd, near Hamidia Hospital, Royal Market, Bhopal, Madhya Pradesh...","Gandhi Medical College, Sultania Rd, near Hamidia Hospital, Royal Market, Bhopal, Madhya Pradesh 462001"," Sultania Rd, Near Hamidia Hospital, Royal Market",Bhopal,462001,India,Madhya Pradesh," Sultania Rd, Near Hamidia Hospital, Royal Market,  Bhopal, 462001, Madhya Pradesh, India",2020-03-23 10:51:18
138,15,19.002056,72.841553,"ICMR-National Institute of Virology Field Unit, Mumbai","National Institute of Virology Field Unit, Mumbai, Haffkine Institute Compound, A D Marg, Parel...","National Institute of Virology Field Unit, Mumbai, Haffkine Institute Compound, A D Marg, Parel Mumbai 4000012","Haffkine Institute Compound, A D Marg, Parel ",Mumbai,4000012,India,Maharashtra,"Haffkine Institute Compound, A D Marg, Parel ,  Mumbai, 4000012, Maharashtra, India",2020-03-23 11:07:06
139,15,26.467302,74.634148,"JLN Medical College, Ajmer","JLN Medical College, Kala Bagh, Ajmer, Rajasthan 305001","JLN Medical College, Kala Bagh, Ajmer, Rajasthan 305001", Kala Bagh,Ajmer,305001,India,Rajasthan," Kala Bagh,  Ajmer, 305001, Rajasthan, India",2020-03-23 11:13:31
140,15,26.817455,80.938622,"Command Hospital, Lucknow","Command Hospital, Lucknow, Uttar Pradesh 226002","Command Hospital, Lucknow, Uttar Pradesh 226002",Lucknow,Lucknow,226002,India,Uttar Pradesh,"Lucknow,  Lucknow, 226002, Uttar Pradesh, India",2020-03-23 11:25:29
141,15,25.123581,75.827454,"Government Medical College, Kota","Government.. Medical College, Rangbari Rd, Sector - A, Rangbari, Kota, Rajasthan 324010","Government.. Medical College, Rangbari Rd, Sector - A, Rangbari, Kota, Rajasthan 324010","Rangbari Rd, Sector - A",Kota,324010,India,Rajasthan,"Rangbari Rd, Sector - A,  Kota, 324010, Rajasthan, India",2020-03-23 12:16:06
142,15,28.960011,77.748032,"Lala Lajpat Rai Memorial Medical College, Meerut","Garh Road, Jai Bhim Nagar, Meerut, Uttar Pradesh 250002","Garh Road, Jai Bhim Nagar, Meerut, Uttar Pradesh 250002"," Garh Road, Jai Bhim Nagar",Meerut,250002,India,Uttar Pradesh," Garh Road, Jai Bhim Nagar,  Meerut, 250002, Uttar Pradesh, India",2020-03-23 12:19:25
143,15,26.743549,80.943008,"Sanjay Gandhi Post Graduate Institute, Lucknow","New PMSSY Rd, Raibareli Rd, Lucknow, Uttar Pradesh 226014","New PMSSY Rd, Raibareli Rd, Lucknow, Uttar Pradesh 226014","New PMSSY Rd, Raibareli Rd",Lucknow,226014,India,Uttar Pradesh,"New PMSSY Rd, Raibareli Rd,  Lucknow, 226014, Uttar Pradesh, India",2020-03-23 12:22:34
144,16,23.019835,72.557091,"Supratech Micropath Laboratory & Research Institute Pvt. Ltd., Ahmedabad","Supratech Micropath Laboratory & Research Institute Pvt. Ltd., Neuberg Supratech, Ground Floor,...","Supratech Micropath Laboratory & Research Institute Pvt. Ltd., Neuberg Supratech, Ground Floor, Kedar Builiding, Opp. Krupa petrol Pump Parimal garden, Gujarat 380006","Kedar Builiding, Opp. Krupa Petrol Pump",Ahmedabad,380006,India,Gujarat,"Kedar Builiding, Opp. Krupa Petrol Pump,  Ahmedabad, 380006, Gujarat, India",2020-03-23 12:28:19
145,16,28.550137,77.201256,"Dr. Dang’s Lab, New Delhi","Dr. Dang’s Lab, C2/1 SDA Aurbindo Marg, New Delhi 110016","Dr. Dang’s Lab, C2/1 SDA Aurbindo Marg, New Delhi 110016",C2/1 SDA Aurbindo Marg,New Delhi,110016,India,Delhi,"C2/1 SDA Aurbindo Marg,  New Delhi, 110016, Delhi, India",2020-03-23 12:30:56
146,16,28.540602,77.281235,"Laboratory Services Indraprastha Apollo Hospitals, New Delhi","Laboratory Services Indraprastha Apollo Hospitals, Sarita Vihar, New Delhi 110076","Laboratory Services Indraprastha Apollo Hospitals, Sarita Vihar, New Delhi 110076",Sarita Vihar,New Delhi,110076,India,Delhi,"Sarita Vihar,  New Delhi, 110076, Delhi, India",2020-03-23 13:37:06
147,16,17.414244,78.410278,"Laboratory Services Apollo Hospitals, Hyderabad","Laboratory Services Apollo Hospitals Hyderabad, 6th Floor Health street Building, Jubilee Hills,...","Laboratory Services Apollo Hospitals Hyderabad, 6th Floor Health street Building, Jubilee Hills, Hyderabad  500096","6th Floor Health street Building, Jubilee Hills",Hyderabad,500096,India,Telangana,"6th Floor Health street Building, Jubilee Hills,  Hyderabad, 500096, Telangana, India",2020-03-23 13:50:02
148,16,17.404165,78.477684,"Vijaya Diagnostic Centre Pvt. Ltd, Hyderabad","Vijaya Diagnostic Centre Pvt. Ltd, 3-6-16 & 17, Street No.19, opp. Lane to Tanishq, Chandra Nagar,...","Vijaya Diagnostic Centre Pvt. Ltd, 3-6-16 & 17, Street No.19, opp. Lane to Tanishq, Chandra Nagar, Himayatnagar, Hyderabad, Telangana 500029","3-6-16 & 17, Street No.19, Chandra Nagar, Himayatnagar",Hyderabad,500029,India,Telangana,"3-6-16 & 17, Street No.19, Chandra Nagar, Himayatnagar,  Hyderabad, 500029, Telangana, India",2020-03-24 06:22:48
149,16,17.470873,78.600082,"Vimta Labs Ltd., Hyderabad","Vimta Labs Ltd., Plot No. 142, Phase 2, IDA Cherlapally, Hyderabad, Telangana, India 500051","Vimta Labs Ltd., Plot No. 142, Phase 2, IDA Cherlapally, Hyderabad, Telangana, India 500051"," Plot No. 142, Phase 2, IDA, Cherlapally",Hyderabad,500051,India,Telangana," Plot No. 142, Phase 2, IDA, Cherlapally,  Hyderabad, 500051, Telangana, India",2020-03-24 06:26:18
151,16,21.18338,72.812172,"S. N. GENELAB, Nanpura, Surat","S. N. GENELAB, 2nd Floor, President Plaza-A, Nanpura, Surat, Gujarat, India 395001","S. N. GENELAB, 2nd Floor, President Plaza-A, Nanpura, Surat, Gujarat, India 395001","2nd Floor, President Plaza-A, Nanpura",Surat,395001,India,Gujarat,"2nd Floor, President Plaza-A, Nanpura,  Surat, 395001, Gujarat, India",2020-03-24 08:04:25
152,16,13.0486,80.26387,"Neuberg Ehrlich Laboratory Pvt Ltd,  Chennai","Neuberg Ehrlich Laboratory Pvt Ltd, 46 & 48, Masilamani Road, Balaji Nagar, Royapettah, Chennai -...","Neuberg Ehrlich Laboratory Pvt Ltd, 46 & 48, Masilamani Road, Balaji Nagar, Royapettah, Chennai - 600 014, Tamil Nadu"," 46 & 48, Masilamani Road, Balaji Nagar, Royapettah",Chennai,600 014,India,Tamil Nadu," 46 & 48, Masilamani Road, Balaji Nagar, Royapettah,  Chennai, 600 014, Tamil Nadu, India",2020-03-24 08:18:10
153,16,18.51881,73.82872,"A.G Diagnostics Pvt Ltd,  Pune","A.G Diagnostics Pvt Ltd, CTS No 809, F.P. 147, Nayantara Building, Bhandarkar Road, Pune,...","A.G Diagnostics Pvt Ltd, CTS No 809, F.P. 147, Nayantara Building, Bhandarkar Road, Pune, Maharashtra 411004"," CTS No 809, F.P. 147, Nayantara Building",Pune,411004,India,Maharashtra," CTS No 809, F.P. 147, Nayantara Building,  Pune, 411004, Maharashtra, India",2020-03-24 08:26:48
154,16,12.957604,77.564575,"Cancyte Technologies Private Limited, Bengaluru","Cancyte Technologies Private Limited, Sri Shankara Research Centre, Bengaluru, Karnataka 560018","Cancyte Technologies Private Limited, Sri Shankara Research Centre, Bengaluru, Karnataka 560018",Sri Shankara Research Centre,Bengaluru,560018,India,Karnataka,"Sri Shankara Research Centre,  Bengaluru, 560018, Karnataka, India",2020-03-24 08:36:59
155,16,19.13126,72.822868,"Kokilaben Dhirubhai Ambani Hospital Laboratory, Mumbai","Kokilaben Dhirubhai Ambani Hospital Laboratory, Four Bungalows, Andheri (West), Mumbai,...","Kokilaben Dhirubhai Ambani Hospital Laboratory, Four Bungalows, Andheri (West), Mumbai, Maharashtra, India"," Four Bungalows,  Andheri (West)",Mumbai,400053,India,Maharashtra," Four Bungalows,  Andheri (West),  Mumbai, 400053, Maharashtra, India",2020-03-24 08:40:27
156,16,28.527643,77.2099,"Max lab, Max Super Speciality Hospita, New Delhi","Max lab, Max Super Speciality Hospital, 1, Press Enclave Road, Saket New Delhi 110017","Max lab, Max Super Speciality Hospital, 1, Press Enclave Road, Saket New Delhi 110017","1, Press Enclave Road, Saket",New Delhi,110017,India,Delhi,"1, Press Enclave Road, Saket,  New Delhi, 110017, Delhi, India",2020-03-24 09:54:54
157,16,19.195042,72.946365,"InfeXn Laboratories Private Ltd, Thane","InfeXn Laboratories Private Ltd, A/131, Therelek Compound, Road Number 23, Wagle Industrial...","InfeXn Laboratories Private Ltd, A/131, Therelek Compound, Road Number 23, Wagle Industrial Estate, Thane West, Thane, Maharashtra 400604","Road Number 23, Wagle Industrial Estate",Thane,400604,India,Maharashtra,"Road Number 23, Wagle Industrial Estate,  Thane, 400604, Maharashtra, India",2020-03-24 12:05:12
158,15,25.610615,85.088951,"Indira Gandhi Institute of Medical Sciences, Patna","Allahabad bank, Bailey Rd, Sheikhpura, Patna, Bihar 800014","Allahabad bank, Bailey Rd, Sheikhpura, Patna, Bihar 800014","Sheikhpura, Bailey Rd",Patna,800014,India,Bihar,"Sheikhpura, Bailey Rd,  Patna, 800014, Bihar, India",2020-03-24 13:32:07
159,15,8.498161,76.939453,"State Public Health Laboratory, Trivandrum","Red Cross Road, Rishimangalam, Pattoor, Thiruvananthapuram, Kerala 695024","Red Cross Road, Rishimangalam, Pattoor, Thiruvananthapuram, Kerala 695024","Red Cross Road,  Rishimangalam, Pattoor",Thiruvananthapuram,695024,India,Kerala ,"Red Cross Road,  Rishimangalam, Pattoor,  Thiruvananthapuram, 695024, Kerala , India",2020-03-24 14:06:26
160,15,9.57547,76.578987,"Interuniversity, Kottayam","Thalappady, Kerala 686019","Thalappady, Kerala 686019",Thalappady ,Thalappady,686019,India,Kerala ,"Thalappady ,  Thalappady, 686019, Kerala , India",2020-03-24 14:16:35
161,15,18.96352,72.833588,"Grant Medical College & Sir JJ Hospital, Mumbai","J J Marg, Nagpada-Mumbai Central, J J Marg, Nagpada-Mumbai Central, Mumbai, Maharashtra 400008","J J Marg, Nagpada-Mumbai Central, J J Marg, Nagpada-Mumbai Central, Mumbai, Maharashtra 400008","J J Marg, Nagpada-Mumbai Central",Mumbai,400008,India,Maharashtra ,"J J Marg, Nagpada-Mumbai Central,  Mumbai, 400008, Maharashtra , India",2020-03-24 14:24:13
162,15,20.231129,85.775108,"All India Institute of Medical Sciences (AIIMS), Bhubaneswar","All India Institute of Medical Sciences (AIIMS), Sijua, Patrapada, Bhubaneswar, Odisha 751019","All India Institute of Medical Sciences (AIIMS), Sijua, Patrapada, Bhubaneswar, Odisha 751019","Sijua, Patrapada",Bhubaneswar,751019,India,Odisha ,"Sijua, Patrapada,  Bhubaneswar, 751019, Odisha , India",2020-03-24 14:29:06
163,15,17.445538,78.472244,"Sir Ronald Ross of Tropical & Communicable Diseases, Hyderabad","Sir Ronald Ross of Tropical & Communicable Diseases, (Fever Hospital), CGHS Complex, Old Aiport...","Sir Ronald Ross of Tropical & Communicable Diseases, (Fever Hospital), CGHS Complex, Old Aiport Road, Motilal Nehru Nagar, Begumpet, Hyderabad, Telangana 500016","CGHS Complex, Old Aiport Road, Motilal Nehru Nagar, Begumpet",Hyderabad,500016,India,Telangana ,"CGHS Complex, Old Aiport Road, Motilal Nehru Nagar, Begumpet,  Hyderabad, 500016, Telangana , India",2020-03-24 20:38:24
164,15,17.422014,78.452026,"Nizam's Institute Of Medical Sciences, Hyderabad","Punjagutta Rd, Punjagutta Market, Punjagutta, Hyderabad, Telangana 500082","Punjagutta Rd, Punjagutta Market, Punjagutta, Hyderabad, Telangana 500082","Punjagutta Rd, Punjagutta",Hyderabad,500082,India,Telangana ,"Punjagutta Rd, Punjagutta,  Hyderabad, 500082, Telangana , India",2020-03-24 21:04:06
165,15,26.812803,83.398865,"ICMR- Regional Medical Research Centre, Gorakhpur","Baba Raghav Das (BRD) Medical College Campus, Gorakhpur, Uttar Pradesh PIN-273013","Baba Raghav Das (BRD) Medical College Campus, Gorakhpur, Uttar Pradesh PIN-273013",Baba Raghav Das (BRD) Medical College Campus,Gorakhpur,273013,India,Uttar Pradesh,"Baba Raghav Das (BRD) Medical College Campus,  Gorakhpur, 273013, Uttar Pradesh, India",2020-03-25 05:05:00
166,16,19.110266,72.884895,"iGenetic Diagnostics Pvt. Ltd., Mumbai","1st Floor, krislon House, Off Marol Military Road, Andheri East, Mumbai Maharashtra 400072","1st Floor, krislon House, Off Marol Military Road, Andheri East, Mumbai Maharashtra 400072",Off Marol Military Road, Andheri East,400072,India,Maharashtra,"Off Marol Military Road,   Andheri East, 400072, Maharashtra, India",2020-03-25 06:43:26
167,16,22.574793,88.384064,"Apollo Gleneagles Hospitals, Kolkata","Apollo Gleneagles Hospitals, 58, Canal Circular Road, Kolkata, West Bengal 700054","Apollo Gleneagles Hospitals, 58, Canal Circular Road, Kolkata, West Bengal 700054","58, Canal Circular Road",Kolkata,700054,India,West Bengal,"58, Canal Circular Road,  Kolkata, 700054, West Bengal, India",2020-03-25 06:50:29
168,16,28.466013,77.02478,"Modern Diagnostic & Research Centre Laboratory, Gurugram","363-364/4, Jawahar Nagar, New Railway Road, Gurugram-122001, Haryana","363-364/4, Jawahar Nagar, New Railway Road, Gurugram-122001, Haryana","363-364/4, Jawahar Nagar, New Railway Road",Gurugram,122001,India,Haryana,"363-364/4, Jawahar Nagar, New Railway Road,  Gurugram, 122001, Haryana, India",2020-03-25 06:54:58
169,16,17.469124,78.48214,"Apollo Health and Lifestyle Limited-Secunderabad, Diagnostics Laboratory, Hyderabad","Apollo Health and Lifestyle Limited-Secunderabad, Diagnostics Laboratory, NOS, 140/A, 140/B,...","Apollo Health and Lifestyle Limited-Secunderabad, Diagnostics Laboratory, NOS, 140/A, 140/B, 140/C, 141/A, 141/B, 141/C, Thokatta Village, Bowenpally, Secunderabad, Telangana, Hyderabad-500011","NOS, 140/A, 140/B, 140/C, 141/A, 141/B, 141/C, Thokatta Village",Secunderabad,500011,India,Telangana,"NOS, 140/A, 140/B, 140/C, 141/A, 141/B, 141/C, Thokatta Village,  Secunderabad, 500011, Telangana, India",2020-03-25 07:01:04
170,16,20.30575,85.831734,"Department of Laboratory Services Apollo Hospitals, Bhubaneswar","Department of Laboratory Services Apollo Hospitals, Plot no 251, Sainik School Rd, Unit 15,...","Department of Laboratory Services Apollo Hospitals, Plot no 251, Sainik School Rd, Unit 15, Gajapati Nagar, Bhubaneswar, Odisha 751005","Plot No 251, Sainik School Rd, Unit 15, Gajapati Nagar",Bhubaneswar,751005,India,Odisha ,"Plot No 251, Sainik School Rd, Unit 15, Gajapati Nagar,  Bhubaneswar, 751005, Odisha , India",2020-03-26 07:46:31
171,16,17.424494,78.450851,"Dr. Remedies labs Private Limited , Hyderabad","Titus Plaza, 1st Floor, Sharma Commercial Complex, Hyderabad, Telangana 500082","Titus Plaza, 1st Floor, Sharma Commercial Complex, Hyderabad, Telangana 500082","Titus Plaza, 1st Floor, Sharma Commercial Complex",Hyderabad,500082,India,Telangana,"Titus Plaza, 1st Floor, Sharma Commercial Complex,  Hyderabad, 500082, Telangana, India",2020-03-26 07:51:06
172,16,28.638811,77.190071,"Sir Ganga Ram Hospital Clinical Laboratory Services, New Delhi","Sarhadi Gandhi Marg, Old Rajinder Nagar, Rajinder Nagar, New Delhi, Delhi 110060","Sarhadi Gandhi Marg, Old Rajinder Nagar, Rajinder Nagar, New Delhi, Delhi 110060","Sarhadi Gandhi Marg, Old Rajinder Nagar, Rajinder Nagar",New Delhi,110060,India,Delhi ,"Sarhadi Gandhi Marg, Old Rajinder Nagar, Rajinder Nagar,  New Delhi, 110060, Delhi , India",2020-03-26 07:52:31
173,16,28.566372,77.197624,"Oncquest Laboratories Limited, New Delhi","ONCQUEST LABORATORIES LIMITED, 3-Factory Road, Adjacent Safdarjung Hospital, New Delhi, Delhi 110029","ONCQUEST LABORATORIES LIMITED, 3-Factory Road, Adjacent Safdarjung Hospital, New Delhi, Delhi 110029","3-Factory Road, Adjacent Safdarjung Hospital",New Delhi,110029,India,Delhi,"3-Factory Road, Adjacent Safdarjung Hospital,  New Delhi, 110029, Delhi, India",2020-03-26 07:55:54
174,16,23.019569,72.560623,"PanGenomics International Pvt. Ltd., Ahmedabad","1st floor sankalp Squre Juna sharda Mandir Cross Road, Ahmedabad, Gujarat 380006","1st floor sankalp Squre Juna sharda Mandir Cross Road, Ahmedabad, Gujarat 380006",1st floor sankalp Squre Juna Sharda Mandir Cross Road,Ahmedabad,380006,India,Gujarat,"1st floor sankalp Squre Juna Sharda Mandir Cross Road,  Ahmedabad, 380006, Gujarat, India",2020-03-26 08:03:03
175,16,13.023108,80.111176,"Sri Ramachandra Laboratory Services, Chennai","No.1 Ramachandra Nagar, Porur, Chennai - 600116 Tamil Nadu, India","No.1 Ramachandra Nagar, Porur, Chennai - 600116 Tamil Nadu, India","No.1 Ramachandra Nagar, Porur",Chennai,600116,India,Tamil Nadu,"No.1 Ramachandra Nagar, Porur,  Chennai, 600116, Tamil Nadu, India",2020-03-26 08:07:46
176,16,26.875189,80.935524,"RML Mehrotra Pathology Pvt Ltd., Lucknow","A-21/A, Nirala Nagar, Lucknow, Uttar Pradesh 226020","A-21/A, Nirala Nagar, Lucknow, Uttar Pradesh 226020","A-21/A, Nirala Nagar",Lucknow,226020,India,Uttar Pradesh,"A-21/A, Nirala Nagar,  Lucknow, 226020, Uttar Pradesh, India",2020-03-27 05:35:03
177,16,28.509289,77.089455,"CORE Diagnostics Pvt Ltd, Gurugram","CORE Diagnostics Pvt Ltd, 406, Udyog Vihar III, Sector 20, Gurugram, Haryana 122016","CORE Diagnostics Pvt Ltd, 406, Udyog Vihar III, Sector 20, Gurugram, Haryana 122016","406, Udyog Vihar III, Sector 20",Gurugram,122016,India,Haryana,"406, Udyog Vihar III, Sector 20,  Gurugram, 122016, Haryana, India",2020-03-27 05:37:22
178,16,9.963544,76.295296,"DDRC SRL Diagnostics Pvt Ltd, Ernakulam","DDRC SRL Diagnostics Pvt Ltd, TOWER,G-131, Panampilly Nagar, Ernakulam, Kerala 682036","DDRC SRL Diagnostics Pvt Ltd, TOWER,G-131, Panampilly Nagar, Ernakulam, Kerala 682036","DDRC SRL TOWER,G-131, Panampilly Nagar",Ernakulam,682036,India,Kerala ,"DDRC SRL TOWER,G-131, Panampilly Nagar,  Ernakulam, 682036, Kerala , India",2020-03-27 05:48:12
179,15,11.749465,75.523911,"Malabar Cancer Centre, Thalassery","Kodiyeri, Muzhikkara - MCC Rd, Illathaazha, Thalassery, Kerala 670103","Kodiyeri, Muzhikkara - MCC Rd, Illathaazha, Thalassery, Kerala 670103","Kodiyeri, Muzhikkara - MCC Rd",Thalassery,670103,India,Kerala,"Kodiyeri, Muzhikkara - MCC Rd,  Thalassery, 670103, Kerala, India",2020-03-27 06:03:24
180,16,17.521467,78.632492,"PATHCARE Labs Pvt. Ltd., Hyderabad","Sy. #34, Opp: Geethanjali Engineering College, Cheeryal (V), Keesara (M), Greater Hyderabad,...","Sy. #34, Opp: Geethanjali Engineering College, Cheeryal (V), Keesara (M), Greater Hyderabad, Telangana 501301","Sy. #34, Opp: Geethanjali Engineering College, Cheeryal (V), Keesara (M)",Hyderabad,501301,India,Telangana ,"Sy. #34, Opp: Geethanjali Engineering College, Cheeryal (V), Keesara (M),  Hyderabad, 501301, Telangana , India",2020-03-27 06:26:59
183,15,17.394382,78.49205,"Institute of Preventive Medicine, Hyderabad","Narayanaguda, Hyderabad, Telangana 500029","Narayanaguda, Hyderabad, Telangana 500029",Narayanaguda,Hyderabad,500029,India,Telangana,"Narayanaguda,  Hyderabad, 500029, Telangana, India",2020-03-27 07:32:06
184,16,17.4706,78.311401,"AMERICAN Institute of Pathology and Laboratory Sciences Private Limited, Hyderabad","AMERICAN Institute of Pathology and Laboratory Sciences Private Limited, Door No. 1-100/CCH,...","AMERICAN Institute of Pathology and Laboratory Sciences Private Limited, Door No. 1-100/CCH, Second Floor, At Citizens Hospital, Nallagandla, Serilingampally, Hyderabad, Telangana 500019","Kanchi Gachibowli Rd, Nallagandla, Serilingampally",Hyderabad,500019,India,Telangana ,"Kanchi Gachibowli Rd, Nallagandla, Serilingampally,  Hyderabad, 500019, Telangana , India",2020-03-27 08:01:22
185,16,22.577131,88.479652,"Department of Laboratory Sciences, Tata Medical Center, Kolkata","Department of Laboratory Sciences, Tata Medical Center, 14, MAR(E-W), DH Block(Newtown), Action...","Department of Laboratory Sciences, Tata Medical Center, 14, MAR(E-W), DH Block(Newtown), Action Area I, Newtown, Kolkata, West Bengal 700160","14, MAR(E-W), DH Block(Newtown), Action Area I, Newtown",Kolkata,700160,India,West Bengal,"14, MAR(E-W), DH Block(Newtown), Action Area I, Newtown,  Kolkata, 700160, West Bengal, India",2020-03-27 08:08:39
186,16,28.580231,77.051018,"Prognosis Laboratories, New Delhi","515-516, Behind Gupta Properties, Sector 19, Pocket 1, Dwarka, New Delhi, Delhi 110075","515-516, Behind Gupta Properties, Sector 19, Pocket 1, Dwarka, New Delhi, Delhi 110075","515-516, Behind Gupta Properties, Sector 19, Pocket 1, Dwarka",New Delhi,110075,India,Delhi,"515-516, Behind Gupta Properties, Sector 19, Pocket 1, Dwarka,  New Delhi, 110075, Delhi, India",2020-03-27 08:14:43
187,15,10.798005,78.676613,"K.A.P. Viswanatham Government Medical College, Trichy","K.A.P.Viswanatham Government Medical College, Periyamilaguparai, Colletor's office Road, Trichy,...","K.A.P.Viswanatham Government Medical College, Periyamilaguparai, Colletor's office Road, Trichy, Tamil Nadu 620001","Periyamilaguparai, Colletor's office Road",Trichy,620001,India,Tamil Nadu,"Periyamilaguparai, Colletor's office Road,  Trichy, 620001, Tamil Nadu, India",2020-03-27 08:24:59
188,16,11.245797,75.79866,"MIMS Laboratory Services, Kozhikode","Aster MIMS Laboratory Services, Mini, Mini Bypass Rd, Govindapuram, Kozhikode, Kerala 673016","Aster MIMS Laboratory Services, Mini, Mini Bypass Rd, Govindapuram, Kozhikode, Kerala 673016","Mini Bypass Rd, Govindapuram",Kozhikode,673016,India,Kerala ,"Mini Bypass Rd, Govindapuram,  Kozhikode, 673016, Kerala , India",2020-03-27 10:49:56
189,16,28.639034,77.101349,"City x-Ray & Scan Clinic Pvt. Ltd., New Delhi ","City X Ray & Scan Clinic Pvt. Ltd., Molecular Laboratory, Third Floor,City Imaging Building,...","City X Ray & Scan Clinic Pvt. Ltd., Molecular Laboratory, Third Floor,City Imaging Building, 4B/18, Tilak Nagar, Near haldiram, New Delhi 110018","Third Floor,City Imaging Building, 4B/18, Tilak Nagar",New Delhi,110018,India,Delhi,"Third Floor,City Imaging Building, 4B/18, Tilak Nagar,  New Delhi, 110018, Delhi, India",2020-03-27 11:16:22
190,15,19.004614,72.843033,"Tata Memorial Centre Diagnostic Services, Tata Memorial Hospital, Mumbai","Dept. of Microbiology & Serology, 6th Floor, Anexe Building, Tata Memorial Hospital, Dr. E. Borges...","Dept. of Microbiology & Serology, 6th Floor, Anexe Building, Tata Memorial Hospital, Dr. E. Borges Road, Parel, Mumbai 400012","Dr Ernest Borges Road, Parel",Mumbai,400012,India,Maharashtra,"Dr Ernest Borges Road, Parel,  Mumbai, 400012, Maharashtra, India",2020-03-28 07:35:54
191,16,17.458767,78.478363,"Medcis Pathlabs India Pvt.Ltd., Secunderabad","Plot 16 & 17, Swathi Plaza, Bhavani Enclave, Anand Nagar, New Bowenpally, near Asish Gardens,...","Plot 16 & 17, Swathi Plaza, Bhavani Enclave, Anand Nagar, New Bowenpally, near Asish Gardens, Hyderabad, Telangana 500011","Plot 16 & 17, Swathi  Plaza, Bhavani Enclave, Anand Nagar, New Bowenpally, near Asish Gardens",Hyderabad,500011,India,Telangana,"Plot 16 & 17, Swathi  Plaza, Bhavani Enclave, Anand Nagar, New Bowenpally, near Asish Gardens,  Hyderabad, 500011, Telangana, India",2020-03-28 08:04:06
192,16,28.500406,77.072037,"Molq Lab (A Unit of Molecular Quest Healthcare Private Limited), Gurugram","Plot 28-29, Sector 18(P), Electronic City, Udyog Vihar Phase-IV, Gurugram, Haryana 122001","Plot 28-29, Sector 18(P), Electronic City, Udyog Vihar Phase-IV, Gurugram, Haryana 122001","Plot 28-29, Electronic City, Sector 18",Gurugram,122001,India,Haryana ,"Plot 28-29, Electronic City, Sector 18,  Gurugram, 122001, Haryana , India",2020-03-28 08:19:16
193,15,17.665312,75.909637,"V. M. Government Medical College, Solapur","V. M. Government Medical College, Opp. District Court, Solapur, Maharashtra 413003, India","V. M. Government Medical College, Opp. District Court, Solapur, Maharashtra 413003, India",Opp. District Court,Solapur,413003,India,Maharashtra,"Opp. District Court,  Solapur, 413003, Maharashtra, India",2020-03-28 11:22:06
194,15,15.464311,73.858414,"Goa Medical College and Hospital, Bambolim","Bambolim, Tiswadi Goa India 403202","Bambolim, Tiswadi Goa India 403202",Bambolim,Tiswadi,403202,India,Goa,"Bambolim,  Tiswadi, 403202, Goa, India",2020-03-29 08:27:55
195,15,19.002079,72.843765,"Haffkine Institute, Mumbai","Acharya Donde Marg, Parel, Mumbai 400012, Maharashtra","Acharya Donde Marg, Parel, Mumbai 400012, Maharashtra","Acharya Donde Marg, Parel",Mumbai,400012,India,Maharashtra,"Acharya Donde Marg, Parel,  Mumbai, 400012, Maharashtra, India",2020-03-29 14:56:03
196,15,12.938421,77.593536,"National Institute of Mental Health and Neuro Sciences (NIMHANS), Bangalore","Bangalore, Hosur Road / Marigowda Road, (Lakkasandra, Wilson Garden), Bangalore – 560029,...","Bangalore, Hosur Road / Marigowda Road, (Lakkasandra, Wilson Garden), Bangalore – 560029, Karnataka, India.",Hosur Road ,Bangalore,560029,India,Karnataka,"Hosur Road ,  Bangalore, 560029, Karnataka, India",2020-03-30 05:41:12
197,15,12.867383,74.843132,"Wenlock District Hospital, Mangalore","Hampankatta, Mangalore Tq, Dakshina Kannada, Karnataka - 575001","Hampankatta, Mangalore Tq, Dakshina Kannada, Karnataka - 575001","Hampankatta, Mangalore Tq",Mangalore,575001,India,Karnataka,"Hampankatta, Mangalore Tq,  Mangalore, 575001, Karnataka, India",2020-03-30 05:45:31
198,15,26.221937,78.177666,"Defence Research & Development Establishment (DRDE), Gwalior","Defence Research & Development Organisation, Jhansi Road, Gwalior-474002, Madhya Pradesh","Defence Research & Development Organisation, Jhansi Road, Gwalior-474002, Madhya Pradesh",Jhansi Road,Gwalior,474002,India,Madhya Pradesh,"Jhansi Road,  Gwalior, 474002, Madhya Pradesh, India",2020-03-30 06:03:47
199,15,13.106272,80.286674,"Stanley Medical College, Chennai","No. 1, Old Jail Rd, Old Washermanpet, Chennai, Tamil Nadu 600001","No. 1, Old Jail Rd, Old Washermanpet, Chennai, Tamil Nadu 600001","No. 1, Old Jail Rd, Old Washermanpet",Chennai,600001,India,Tamil Nadu,"No. 1, Old Jail Rd, Old Washermanpet,  Chennai, 600001, Tamil Nadu, India",2020-03-30 06:09:43
200,15,17.421103,78.541214,"CSIR-Centre for Cellular & Molecular Biology (CCMB), Hyderabad","CSIR-Centre for Cellular & Molecular Biology (CCMB), Uppal Road, Habsiguda, Hyderabad, Telangana...","CSIR-Centre for Cellular & Molecular Biology (CCMB), Uppal Road, Habsiguda, Hyderabad, Telangana 500007","Uppal Road, Habsiguda",Hyderabad,500007,India,Telangana,"Uppal Road, Habsiguda,  Hyderabad, 500007, Telangana, India",2020-03-30 06:13:03
201,15,22.52564,88.346664,"Chittaranjan National Cancer Institute, Kolkata","Chittaranjan National Cancer Institute, 37,S.P.Mukherjee Road,Kolkata-700 026","Chittaranjan National Cancer Institute, 37,S.P.Mukherjee Road,Kolkata-700 026","37, S.P.Mukherjee Road",Kolkata,700 026,India,West Bengal,"37, S.P.Mukherjee Road,  Kolkata, 700 026, West Bengal, India",2020-03-30 06:19:02
202,15,23.300125,77.416862,"Bhopal Memorial Hospital & Research Centre, Bhopal","Bhopal Memorial Hospital & Research Centre, Raisen Rd, Near Best Price, BMHRC Campus, Karond,...","Bhopal Memorial Hospital & Research Centre, Raisen Rd, Near Best Price, BMHRC Campus, Karond, Bhopal, Madhya Pradesh 462038","Raisen Rd, Near Best Price, Karond",Bhopal,462038,India,Madhya Pradesh,"Raisen Rd, Near Best Price, Karond,  Bhopal, 462038, Madhya Pradesh, India",2020-03-30 06:46:03
203,15,30.899633,76.96463,"Central Research Institute, Kasauli","Central Research Institute, Solan, Kasauli, Himachal Pradesh 173204","Central Research Institute, Solan, Kasauli, Himachal Pradesh 173204","Solan, Kasauli",Kasauli,173204,India,Himachal Pradesh,"Solan, Kasauli,  Kasauli, 173204, Himachal Pradesh, India",2020-03-30 06:51:27
204,15,23.623152,92.728043,"Zoram Medical College, Aizwal","State Referral Hospital, Falkawn, Aizwal, Mizoram 796005","State Referral Hospital, Falkawn, Aizwal, Mizoram 796005","State Referral Hospital, Falkawn",Aizwal,796005,India,Mizoram,"State Referral Hospital, Falkawn,  Aizwal, 796005, Mizoram, India",2020-03-30 06:59:00
205,15,27.346516,88.603371,"Intermediate Reference Laboratory, Sir Thutob Namgyal Memorial (STNM), Gangtok","Sungava, Gangtok, Sikkim 737101","Sungava, Gangtok, Sikkim 737101",Sungava,Gangtok,737101,India,Sikkim,"Sungava,  Gangtok, 737101, Sikkim, India",2020-03-30 07:02:29
206,15,34.153793,77.580208," Sonam Nurboo Memorial Hospital, Leh-Ladakh","Sonam Nurboo Memorial Hospital, Old Leh Rd, Leh-Ladakh, Ladakh 194101","Sonam Nurboo Memorial Hospital, Old Leh Rd, Leh-Ladakh, Ladakh 194101",Old Leh Rd,Leh-Ladakh,194101,India,Ladakh,"Old Leh Rd,  Leh-Ladakh, 194101, Ladakh, India",2020-03-30 07:06:28
207,15,27.103872,93.691101,"Tomo Riba Institute Health and Medical Sciences (TRIHMS), Naharlagun","Old Assembly Complex, Naharlagun, Papumpare District, Arunachal Pradesh 791110","Old Assembly Complex, Naharlagun, Papumpare District, Arunachal Pradesh 791110","Old Assembly Complex, Naharlagun, Papumpare District",Naharlagun,791110,India,Arunachal Pradesh ,"Old Assembly Complex, Naharlagun, Papumpare District,  Naharlagun, 791110, Arunachal Pradesh , India",2020-03-30 07:15:53
208,16,13.002532,80.246841,"Y. R. Gaitonde Centre for AIDS Research and Education (YRG Care), Chennai","Division of Molecular Biology & Genotyping, YRG CARE Infectious Diseases Laboratory VHS Hospital...","Division of Molecular Biology & Genotyping, YRG CARE Infectious Diseases Laboratory VHS Hospital Campus, Rajiv Gandhi Road, Tharamani, Chennai, Tamil Nadu 600113","SH 49A, Pallipattu, Tharamani",Chennai,600113,India,Tamil Nadu,"SH 49A, Pallipattu, Tharamani,  Chennai, 600113, Tamil Nadu, India",2020-03-30 10:06:22
210,15,12.393007,75.091675,"Central University of Kerala, Kasaragod","Central University of Kerala, Tejaswini Hills, Periye (PO), Kasaragod (DT), Kerala - 671316","Central University of Kerala, Tejaswini Hills, Periye (PO), Kasaragod (DT), Kerala - 671316","Tejaswini Hills, Periye",Kasaragod,671316,India,Kerala,"Tejaswini Hills, Periye,  Kasaragod, 671316, Kerala, India",2020-03-30 11:54:55
211,16,11.014438,76.909927,"Microbiological Laboratory, Coimbatore","Microbiological laboratory, no-02, kings colony, united nagar, veerakeralam road, vadavalli,...","Microbiological laboratory, no-02, kings colony, united nagar, veerakeralam road, vadavalli, Coimbatore, Tamil Nadu, India","Kings Colony, United Nagar, Veerakeralam Road, Vadavalli",Coimbatore,641041,India,Tamil Nadu,"Kings Colony, United Nagar, Veerakeralam Road, Vadavalli,  Coimbatore, 641041, Tamil Nadu, India",2020-03-30 15:15:50
212,15,22.574972,88.359772,"School of Tropical Medicine, Kolkata","108, Chittaranjan Avenue, Kolkata - 700073, West Bengal","108, Chittaranjan Avenue, Kolkata - 700073, West Bengal","108, Chittaranjan Avenue",Kolkata,700073,India,West Bengal,"108, Chittaranjan Avenue,  Kolkata, 700073, West Bengal, India",2020-03-31 05:38:12
213,15,28.635763,77.240074,"Maulana Azad Medical College, New Delhi","2, Bahadur Shah Zafar Marg, New Delhi, Delhi 110002","2, Bahadur Shah Zafar Marg, New Delhi, Delhi 110002","2, Bahadur Shah Zafar Marg",New Delhi,110002,India,Delhi,"2, Bahadur Shah Zafar Marg,  New Delhi, 110002, Delhi, India",2020-03-31 05:48:49
214,16,17.442057,78.497147,"The Department of Laboratory Medicine, Yashoda Hospital, Secunderabad","9th Floor, 1-1-156 & 157, Alexander Road, S. P. Road, Secunderabad, Telangana 500003","9th Floor, 1-1-156 & 157, Alexander Road, S. P. Road, Secunderabad, Telangana 500003","9th Floor, 1-1-156 & 157, Alexander Road, S. P. Road",Secunderabad,500003,India,Telangana,"9th Floor, 1-1-156 & 157, Alexander Road, S. P. Road,  Secunderabad, 500003, Telangana, India",2020-03-31 07:45:51
215,16,30.326824,78.047012,"Dr. Ahuja’s Pathlogy and Imaging Centre-Department of Laboratory Medicine, Dehradun","7-B Astley Hall, Ugrasain Rd, Dehradun, Uttarakhand 248001","7-B Astley Hall, Ugrasain Rd, Dehradun, Uttarakhand 248001",7-B Astley Hall,Dehradun,248001,India,Uttarakhand,"7-B Astley Hall,  Dehradun, 248001, Uttarakhand, India",2020-03-31 07:56:58
216,16,28.493011,77.082649,"PATHKIND Diagnostics Pvt. Ltd., Gurugram","Plot No. 55, 56, Service Lane, Phase IV, Udyog Vihar, Sector 18, Gurugram, Haryana 122015","Plot No. 55, 56, Service Lane, Phase IV, Udyog Vihar, Sector 18, Gurugram, Haryana 122015","Plot No. 55, 56, Service Lane, Phase IV, Udyog Vihar, Sector 18",Gurugram,122015,India,Haryana,"Plot No. 55, 56, Service Lane, Phase IV, Udyog Vihar, Sector 18,  Gurugram, 122015, Haryana, India",2020-04-02 09:56:32
217,15,21.038603,79.02375,"All India Institute of Medical Sciences (AIIMS), Nagpur","All India Institute of Medical Sciences (AIIMS), Plot No. 2, Sector - 20, MIHAN, Nagpur  441108...","All India Institute of Medical Sciences (AIIMS), Plot No. 2, Sector - 20, MIHAN, Nagpur  441108 Maharashtra","Plot No. 2, Sector - 20, MIHAN",Nagpur,441108,India,Maharashtra,"Plot No. 2, Sector - 20, MIHAN,  Nagpur, 441108, Maharashtra, India",2020-04-02 10:14:12
218,15,28.394361,77.293716,"ESIC Medical College and Hospital, Faridabad","ESIC Medical College and Hospital, NH-3, NIT, Faridabad, Haryana","ESIC Medical College and Hospital, NH-3, NIT, Faridabad, Haryana","NH-3, NIT",Faridabad,121012,India,Haryana,"NH-3, NIT,  Faridabad, 121012, Haryana, India",2020-04-02 12:43:49
219,15,20.270714,73.007698,"Shri Vinoba Bhave Civil Hospital and NAtional MOdern Medical Education and Research Institute, Silvassa","NAtional MOdern Medical Education and Research Institute and Shri Vinoba Bhave Civil Hospital,...","NAtional MOdern Medical Education and Research Institute and Shri Vinoba Bhave Civil Hospital, Sayali Road, Silvassa Dadra & Nagar Haveli 396230 India",Sayali Road,Silvassa,396230,India,Dadra & Nagar Haveli,"Sayali Road,  Silvassa, 396230, Dadra & Nagar Haveli, India",2020-04-02 13:36:41
220,15,21.165146,79.045982,"Nagpur Veterinary College, Nagpur ","Department of Veterinary Public Health & Epidemiology, Nagpur Veterinary College. Seminary Hills,...","Department of Veterinary Public Health & Epidemiology, Nagpur Veterinary College. Seminary Hills, Nagpur 440006, Maharashtra",Seminary Hills,Nagpur,440006,India,Maharashtra,"Seminary Hills,  Nagpur, 440006, Maharashtra, India",2020-04-03 13:31:08
221,16,13.079124,80.25354,"Hitech Diagnostic Centre – A Unit of Dr. Ganesan’s Hitech Diagnostic Centre Private Limited, Chennai","Hitech Diagnostic Centre – A Unit of Dr. Ganesan’s Hitech Diagnostic Centre Private Limited, NO...","Hitech Diagnostic Centre – A Unit of Dr. Ganesan’s Hitech Diagnostic Centre Private Limited, NO 935, GKS Towers,  Poonamallee High Road, Chennai – 600084, India","NO 935, GKS Towers,  Poonamallee High Road",Chennai,600084,India,Tamil Nadu,"NO 935, GKS Towers,  Poonamallee High Road,  Chennai, 600084, Tamil Nadu, India",2020-04-04 08:09:52
222,16,12.932287,77.685188,"Sakra World Hospital Laboratory Services, Bangalore","Sakra World Hospital Laboratory Services, 52/2 & 52/3, Deverabeesanahalli, Varthur Hobli,...","Sakra World Hospital Laboratory Services, 52/2 & 52/3, Deverabeesanahalli, Varthur Hobli, Bangalore-560103, Karnataka, India","52/2 & 52/3, Deverabeesanahalli, Varthur Hobli",Bangalore,560103,India,Karnataka,"52/2 & 52/3, Deverabeesanahalli, Varthur Hobli,  Bangalore, 560103, Karnataka, India",2020-04-04 08:15:01
223,16,18.507816,73.804382,"Sahyadri Speciality Labs,  Pune","Sahyadri Speciality Labs, Plot No. 54, S.No. 80-90, Lokmanya Colony, Kothrud, Pune-411038,...","Sahyadri Speciality Labs, Plot No. 54, S.No. 80-90, Lokmanya Colony, Kothrud, Pune-411038, Maharashtra, India","Plot No. 54, S.No. 80-90, Lokmanya Colony, Kothrud",Pune,411038,India,Maharashtra,"Plot No. 54, S.No. 80-90, Lokmanya Colony, Kothrud,  Pune, 411038, Maharashtra, India",2020-04-04 08:22:16
224,16,19.235737,72.856422,"Dr. Jariwala Laboratory & Diagnostics LLP, Mumbai","Dr. Jariwala Laboratory & Diagnostics LLP, 1st Floor, Rasraj Heights, Rokadia Lane, Near Gokul...","Dr. Jariwala Laboratory & Diagnostics LLP, 1st Floor, Rasraj Heights, Rokadia Lane, Near Gokul Hotel Off,Mandpeshwar Road, Borivli (W), Mumbai-400092, Maharashtra","1st Floor, Rasraj Heights, Rokadia Lane, Near Gokul Hotel Off, Mandpeshwar Road, Borivli (W)",Mumbai,400092,India,Maharashtra,"1st Floor, Rasraj Heights, Rokadia Lane, Near Gokul Hotel Off, Mandpeshwar Road, Borivli (W),  Mumbai, 400092, Maharashtra, India",2020-04-04 10:55:25
225,15,25.460024,78.614647,"Maharani Laxmi Bai Medical College, Jhansi","Maharani Laxmi Bai Medical College, Jhansi - Kanpur Road, Jhansi, Uttar Pradesh 284001, India","Maharani Laxmi Bai Medical College, Jhansi - Kanpur Road, Jhansi, Uttar Pradesh 284001, India",Jhansi - Kanpur Road,Jhansi,284001,India,Uttar Pradesh,"Jhansi - Kanpur Road,  Jhansi, 284001, Uttar Pradesh, India",2020-04-05 08:07:46
226,15,15.361485,75.130791,"Karnataka Institute of Medical Sciences (K.I.M.S.), Hubballi","Karnataka Institute of Medical Sciences (K.I.M.S.), P. B Road, Vidyanagar, Hubli – 580022,...","Karnataka Institute of Medical Sciences (K.I.M.S.), P. B Road, Vidyanagar, Hubli – 580022, Karnataka, India"," P. B Road, Vidyanagar",Hubli,580022,India,Karnataka," P. B Road, Vidyanagar,  Hubli, 580022, Karnataka, India",2020-04-05 13:24:41
227,15,25.450397,81.851883,"Motilal Nehru Medical College, Prayagraj","Motilal Nehru Medical College, George Town, Prayagraj, Uttar Pradesh 211002, India","Motilal Nehru Medical College, George Town, Prayagraj, Uttar Pradesh 211002, India",George Town,Prayagraj,211002,India,Uttar Pradesh,"George Town,  Prayagraj, 211002, Uttar Pradesh, India",2020-04-05 14:06:07
228,15,11.282466,77.566139,"IRT Perundurai Medical College, Perundurai","IRT Perundurai Medical College, Perundurai -638053 Erode District TamilNadu, India","IRT Perundurai Medical College, Perundurai -638053 Erode District TamilNadu, India",Perundurai,Perundurai,638053,India,Tamil Nadu,"Perundurai,  Perundurai, 638053, Tamil Nadu, India",2020-04-05 17:11:24
229,16,22.48068,88.394173,"Laboratory Services, Peerless Hospitex Hospital & Research Center Limited, Kolkata","Laboratory Services, Peerless Hospitex Hospital & Research Center Limited, 360, Panchasayar,...","Laboratory Services, Peerless Hospitex Hospital & Research Center Limited, 360, Panchasayar, Kolkata, West Bengal 700094, India","360, Panchasayar",Kolkata,700094,India,West Bengal,"360, Panchasayar,  Kolkata, 700094, West Bengal, India",2020-04-06 09:21:13
230,16,18.533382,73.877014,"Ruby Hall Clinic, Department of Laboratory, Grant Medical Foundation, Pune","Ruby Hall Clinic, Department of Laboratory, Grant Medical Foundation, 40, Sassoon Road, Pune –...","Ruby Hall Clinic, Department of Laboratory, Grant Medical Foundation, 40, Sassoon Road, Pune – 411001, Maharashtra, India"," 40, Sassoon Road",Pune,411001,India,Maharashtra," 40, Sassoon Road,  Pune, 411001, Maharashtra, India",2020-04-06 10:30:24
231,16,18.518278,73.834435,"Metropolis Healthcare Limited, Pune","Construction House, Ground Floor, First Floor & Second Floor, 796/189-B, Bhandarkar Institute...","Construction House, Ground Floor, First Floor & Second Floor, 796/189-B, Bhandarkar Institute Road, Pune – 411004, Maharashtra, India","Construction House, Ground Floor, First Floor & Second Floor, 796/189-B, Bhandarkar Institute Road",Pune,411004,India,Maharashtra,"Construction House, Ground Floor, First Floor & Second Floor, 796/189-B, Bhandarkar Institute Road,  Pune, 411004, Maharashtra, India",2020-04-06 10:45:47
232,16,12.97583,77.729431,"Central Diagnostic Laboratory, Vydehi Institute of Medical Sciences & Research Centre,  Bangalore","Central Diagnostic Laboratory, Vydehi Institute of Medical Sciences & Research Centre, Basement...","Central Diagnostic Laboratory, Vydehi Institute of Medical Sciences & Research Centre, Basement Hospital Building, #82, E.P.I.P. Area, Whitefield, Bangalore-560066, Karnataka","Basement Hospital Building, #82, E.P.I.P. Area, Whitefield",Bangalore,560066,India,Karnataka,"Basement Hospital Building, #82, E.P.I.P. Area, Whitefield,  Bangalore, 560066, Karnataka, India",2020-04-07 07:33:44
233,16,13.021618,80.185562,"MIOT Hospitals – Department of Laboratory Medicine, Chennai","MIOT Hospitals – Department of Laboratory Medicine, No : 4/112,  Mount Poonamallee Road,...","MIOT Hospitals – Department of Laboratory Medicine, No : 4/112,  Mount Poonamallee Road, Manapakkam, Chennai-600089, Tamil Nadu","No : 4/112,  Mount Poonamallee Road, Manapakkam",Chennai,600089,India,Tamil Nadu,"No : 4/112,  Mount Poonamallee Road, Manapakkam,  Chennai, 600089, Tamil Nadu, India",2020-04-07 07:43:20
234,16,22.568304,88.411674,"AMRI Hospitals, Department of Laboratory Medicine, Kolkata","AMRI Hospitals, Department of Laboratory Medicine, JC 16 & 17, Sector III, Salt Lake City,...","AMRI Hospitals, Department of Laboratory Medicine, JC 16 & 17, Sector III, Salt Lake City, Kolkata, West Bengal -700098, India","JC 16 & 17, Sector III, Salt Lake City",Kolkata,700098,India,West Bengal,"JC 16 & 17, Sector III, Salt Lake City,  Kolkata, 700098, West Bengal, India",2020-04-07 07:50:11
235,16,28.515364,77.37149,"Department of Laboratory Medicine, Jaypee Hospital, Noida","Department of Laboratory Medicine, Jaypee Hospital, Sector 128, Noida-201304","Department of Laboratory Medicine, Jaypee Hospital, Sector 128, Noida-201304",Sector 128,Noida,201304,India,Uttar Pradesh,"Sector 128,  Noida, 201304, Uttar Pradesh, India",2020-04-07 11:03:11
236,16,17.533503,78.392639,"Biognosys Technologies (India) Private Limited, Hyderabad","Biognosys Technologies (India) Private Limited, # 8 - 148/174/11, NRI Colony, ALEAP Industrial...","Biognosys Technologies (India) Private Limited, # 8 - 148/174/11, NRI Colony, ALEAP Industrial Area, Medchal, Malkajgiri, Hyderabad, Telangana 500090, India","8 - 148/174/11, NRI Colony, ALEAP Industrial Area, Medchal, Malkajgiri",Hyderabad,500090,India,Telangana,"8 - 148/174/11, NRI Colony, ALEAP Industrial Area, Medchal, Malkajgiri,  Hyderabad, 500090, Telangana, India",2020-04-07 11:13:21
237,16,13.086141,80.18737,"Madras Medical Mission Clinical Laboratory Services, Chennai","Madras Medical Mission Clinical, Laboratory Services, 4-A, Dr. J. Jayalalitha Nagar, Mogappair,...","Madras Medical Mission Clinical, Laboratory Services, 4-A, Dr. J. Jayalalitha Nagar, Mogappair, Chennai-600037, India","4-A, Dr. J. Jayalalitha Nagar, Mogappair",Chennai,600037,India,Tamil Nadu,"4-A, Dr. J. Jayalalitha Nagar, Mogappair,  Chennai, 600037, Tamil Nadu, India",2020-04-07 11:18:56
238,15,28.627584,77.357536,"National Institute of Biologicals, Noida","National Institute of Biologicals,  Plot No. A-32, Sector-62, Institutional Area, Noida -201309,...","National Institute of Biologicals,  Plot No. A-32, Sector-62, Institutional Area, Noida -201309, Uttar Pradesh, India","Plot No. A-32, Sector-62, Institutional Area",Noida,201309,India,Uttar Pradesh,"Plot No. A-32, Sector-62, Institutional Area,  Noida, 201309, Uttar Pradesh, India",2020-04-07 12:19:06
239,16,19.176058,72.953758,"Qualilife Diagnostics, Mumbai","Qualilife Diagnostics, Balaji Arcade, 1st Floor, 544/A, Above Janata Sahakari Bank, Netaji Subhash...","Qualilife Diagnostics, Balaji Arcade, 1st Floor, 544/A, Above Janata Sahakari Bank, Netaji Subhash Road, Mulud – West, Mumbai-400080","Balaji Arcade, 1st Floor, 544/A,  Netaji Subhash Road, Mulud West",Mumbai,400080,India,Maharashtra,"Balaji Arcade, 1st Floor, 544/A,  Netaji Subhash Road, Mulud West,  Mumbai, 400080, Maharashtra, India",2020-04-09 10:17:42
240,16,12.896011,77.599373,"Laboratory Services, Apollo Hospitals, (A Unit of M/S Imperial Hospital and Research Centre Ltd), Bengaluru","Laboratory Services, Apollo Hospitals, (A Unit of M/S Imperial Hospital and Research Centre Ltd),...","Laboratory Services, Apollo Hospitals, (A Unit of M/S Imperial Hospital and Research Centre Ltd), 154/11, Opp IIM, Bannerghatta Road, Bengaluru - 560 076, Karnataka, India","154/11, Opp IIM, Bannerghatta Road",Bengaluru,560076,India,Karnataka,"154/11, Opp IIM, Bannerghatta Road,  Bengaluru, 560076, Karnataka, India",2020-04-09 10:28:27
241,15,30.682331,74.747246,"Guru Gobind Singh Medical College & Hospital, Faridkot","Guru Gobind Singh Medical College & Hospital, Sadiq Road, Faridkot, Punjab 151203, India","Guru Gobind Singh Medical College & Hospital, Sadiq Road, Faridkot, Punjab 151203, India",Sadiq Road,Faridkot,151203,India,Punjab,"Sadiq Road,  Faridkot, 151203, Punjab, India",2020-04-10 07:32:23
242,15,27.187969,78.009209,"Sarojini Naidu Medical College, Agra","S.N. Medical College, Moti Katra, Agra - 282002 (U.P) India","S.N. Medical College, Moti Katra, Agra - 282002 (U.P) India", Moti Katra,Agra,282002,India,Uttar Pradesh," Moti Katra,  Agra, 282002, Uttar Pradesh, India",2020-04-10 10:41:38
243,15,19.065228,73.064667,"Advanced Centre for Treatment, Research and Education in Cancer (ACTREC), Tata Memorial Centre, Navi Mumbai","Advanced Centre for Treatment, Research and Education in Cancer (ACTREC), Tata Memorial Centre,...","Advanced Centre for Treatment, Research and Education in Cancer (ACTREC), Tata Memorial Centre, Kharghar, Navi Mumbai - 410210, INDIA.",Kharghar,Navi Mumbai,410 210,India,Maharashtra,"Kharghar,  Navi Mumbai, 410 210, Maharashtra, India",2020-04-10 10:49:47
244,15,23.01866,72.571327,"Smt. NHL Municipal Medical College, Ahmedabad","Smt. NHL Municipal Medical College, Pritan Rai Cross Road, Ellise Bridge, Paldi, Ahmedabad,...","Smt. NHL Municipal Medical College, Pritan Rai Cross Road, Ellise Bridge, Paldi, Ahmedabad, Gujarat 380006, India","Pritan Rai Cross Road, Ellise Bridge, Paldi",Ahmedabad,380006,India,Gujarat,"Pritan Rai Cross Road, Ellise Bridge, Paldi,  Ahmedabad, 380006, Gujarat, India",2020-04-10 10:54:44
245,15,26.869272,81.002983,"Dr. Ram Manohar Lohia Institute of Medical Sciences (DR.RMLIMS), Lucknow","Dr. Ram Manohar Lohia Institute of Medical Sciences (DR.RMLIMS), Vibhuti Khand, Gomtinagar,...","Dr. Ram Manohar Lohia Institute of Medical Sciences (DR.RMLIMS), Vibhuti Khand, Gomtinagar, Lucknow-226010, Uttar Pradesh, India","Vibhuti Khand, Gomtinagar",Lucknow,226010,India,Uttar Pradesh,"Vibhuti Khand, Gomtinagar,  Lucknow, 226010, Uttar Pradesh, India",2020-04-10 11:19:49
246,15,12.12327,78.157776,"Government Dharmapuri Medical College, Dharmapuri","Government Dharmapuri Medical College, Nethaji byepass Road, Dharmapuri, Tamil Nadu, 636701 India   ","Government Dharmapuri Medical College, Nethaji byepass Road, Dharmapuri, Tamil Nadu, 636701 India   ",Nethaji byepass Road,Dharmapuri,636701,India,Tamil Nadu,"Nethaji byepass Road,  Dharmapuri, 636701, Tamil Nadu, India",2020-04-10 13:57:02
247,15,13.072129,77.578354,"Institute for Stem Cell Science and Regenerative Medicine, Bangalore ","Institute for Stem Cell Science and Regenerative Medicine, Bellary Road, Bangalore 560065,...","Institute for Stem Cell Science and Regenerative Medicine, Bellary Road, Bangalore 560065, Karnataka, India",Bellary Road,Bangalore,560065,India,Karnataka,"Bellary Road,  Bangalore, 560065, Karnataka, India",2020-04-10 14:14:03
248,15,23.054775,72.610725,"ICMR-National Institute of Occupational Health, Ahmedabad","ICMR-National Institute of Occupational Health, Meghani Nagar, Ahmedabad-380016, Gujarat, India","ICMR-National Institute of Occupational Health, Meghani Nagar, Ahmedabad-380016, Gujarat, India",Meghani Nagar,Ahmedabad,380016,India,Gujarat,"Meghani Nagar,  Ahmedabad, 380016, Gujarat, India",2020-04-10 14:19:23
249,16,22.580664,88.476105,"Suraksha Diagnostics Pvt. Ltd., Kolkata","Suraksha Diagnostics Pvt. Ltd., 12/1, Premises No. 02-0327, DG Block, Action Area 1D, Newtown,...","Suraksha Diagnostics Pvt. Ltd., 12/1, Premises No. 02-0327, DG Block, Action Area 1D, Newtown, Kolkata, West Bengal 700156, India","12/1, Premises No. 02-0327, DG Block, Action Area 1D, Newtown",Kolkata,700156,India,West Bengal,"12/1, Premises No. 02-0327, DG Block, Action Area 1D, Newtown,  Kolkata, 700156, West Bengal, India",2020-04-11 11:11:04
250,15,19.307596,84.810974,"M.K.C.G Medical College, Berhampur","M.K.C.G Medical College,  National Highway 59, Berhampur, District - Ganjam, Odisha. Pin: 760 004,...","M.K.C.G Medical College,  National Highway 59, Berhampur, District - Ganjam, Odisha. Pin: 760 004, India", National Highway 59,Berhampur,760004,India,Odisha," National Highway 59,  Berhampur, 760004, Odisha, India",2020-04-11 14:25:51
